name,url,type,address,label,feature,price,comment1,comment2,comment3,comment_count,lng,lat
海底捞火锅(牡丹园店) 分店,/shop/515381,火锅,海淀区花园东路2号 62033112,其他火锅 北太平庄,滑牛肉 一根面 海底捞牛肉,83,8.6,8.2,9.3,21429,116.37627,39.98398
麻辣诱惑(君太店) 分店,/shop/516112,川菜,西城区西单北大街133号君太百货7楼 82656688,川菜 西单,水煮鱼 毛血旺 酸梅汤,79,8.3,8.4,8.2,21071,116.37948,39.915764
稻香村 分店,/shop/510654,小吃快餐,多家营业部 84043305,老北京小吃 食品茶酒,牛舌饼 萨其马 枣糕,28,9,7.7,7.9,18445,0,0
西单翅酷(西单店),/shop/562817,小吃快餐,西城区西单图书大厦东侧钟声胡同15号 66032605,烧烤 西单,微辣鸡翅 原味鸡翅 烤馒头,49,7.5,4.4,4.9,17008,116.38423,39.91588
金钱豹国际美食百汇(王府井店) 分店,/shop/584865,自助餐 海鲜,东城区东安门大街55号王府世纪大厦2楼 65598888,自助餐 婚宴酒店 王府井/东单,三文鱼 提拉米苏 烤鳗鱼,209,7.4,7.7,7.6,16950,116.41426,39.922398
海底捞火锅(西单店) 分店,/shop/2114887,火锅,西城区西单北大街109号西单婚庆大楼7楼 66174063,其他火锅 西单,滑牛肉 鸳鸯锅底 鸭血,87,8.6,8.4,9.3,16868,116.3802,39.92044
文宇奶酪店,/shop/513701,小吃快餐,东城区南锣鼓巷49号 ,老北京小吃 地安门,红豆双皮奶 原味奶酪 双皮奶,14,8.4,6.8,7.3,14413,116.40941,39.945004
川京办餐厅,/shop/510880,川菜,东城区建国门内大街贡院西街头条5号 65122277-6101,川菜 婚宴酒店 建国门/北京站,口水鸡 毛血旺 川北凉粉,66,8.5,6.7,6.4,13637,116.43736,39.91465
九门小吃,/shop/1924552,小吃快餐,西城区德内大街孝友胡同1号 ,老北京小吃 什刹海,爆肚 奶酪魏 卤煮,48,6.1,6,5,10928,116.388275,39.9521
姚记炒肝店(鼓楼店) 分店,/shop/513043,小吃快餐,东城区鼓楼东大街311号 84010570,老北京小吃 地安门,炒肝 包子 卤煮,23,8.2,6.3,6.7,10216,116.403206,39.947243
那家小馆(永安里店) 分店,/shop/515445,北京菜,朝阳区建国门外永安里10号 65673663,官府菜 婚宴酒店 国贸,秘制酥皮虾 皇坛子 桂花山药,113,8.5,8.7,8.5,9466,116.45459,39.91283
沸腾鱼乡(知春路店) 分店,/shop/510176,川菜,海淀区知春路17号 82311286,川菜 双榆树 中关村,水煮鱼 馋嘴蛙 毛血旺,87,8.3,7.7,7.5,9168,116.35262,39.98242
护国寺小吃店(护国寺总店) 分店,/shop/509084,小吃快餐,西城区护国寺大街93号 66181705,老北京小吃 新街口,豌豆黄 奶油炸糕 驴打滚,22,8.3,7.2,7.1,9128,116.38118,39.941204
江边城外烤全鱼(交大店) 分店,/shop/516382,川菜,西城区西直门交大东路46号 51562760,烤鱼 西直门/动物园,香辣烤鱼 豆豉烤鱼 麻辣烤鱼,65,8.8,7.7,7.8,8779,116.3555,39.956223
眉州东坡酒楼(中关村店) 分店,/shop/515636,川菜,海淀区中关村大街27号中关村大厦2楼 59683322,川菜 婚宴酒店 中关村,东坡肘子 眉州香肠 夫妻肺片,70,8.4,8.3,8.1,8053,116.32299,39.983425
大董烤鸭店(东四十条店) 分店,/shop/1953784,北京菜,东城区东四十条甲22号南新仓商务大厦1-2楼 51690329,烤鸭 创意菜 东四,烤鸭 咸水鸭肝 芥末鸭掌,216,8.9,9,8.6,7668,116.43756,39.938866
华天新川面馆(新街口店) 分店,/shop/511011,小吃快餐,西城区新街口南大街14号 83280452,粉面馆 新街口,凉面 麻辣凉面 担担面,16,8.9,6.2,6.6,6934,116.37939,39.946346
全聚德烤鸭店(和平门店) 分店,/shop/508125,北京菜,西城区前门西大街14号楼 83193101,烤鸭 婚宴酒店 菜市口,烤鸭 芥末鸭掌 盐水鸭肝,164,8.4,8.3,8.2,6875,116.39093,39.90552
渝信川菜(西单店) 分店,/shop/510770,川菜,西城区西单北大街111号西单国际大厦7楼 66183918,川菜 婚宴酒店 西单,水煮鱼 川北凉粉 毛血旺,73,8.4,8.1,7.8,6639,116.38026,39.919506
呷哺呷哺(汉光百货店) 分店,/shop/511548,火锅,西城区西单北大街176号汉光百货8楼 ,其他火锅 西单,麻酱小料 金针菇 豆皮,42,8.2,7.3,7.6,6560,116.3813,39.915443
新疆饭庄,/shop/512888,新疆菜,西城区车公庄大街北里1号乌鲁木齐驻京办 68362795,新疆菜 西直门/动物园,自制酸奶 羊肉串 大盘鸡,69,8.8,7.5,7.6,6093,116.355225,39.940605
肯德基 分店,/shop/513343,小吃快餐,多家连锁店 ,快餐/简餐,香辣鸡腿堡 新奥尔良烤翅 葡式蛋挞,29,7.5,7.8,7.7,5478,116.454704,39.961258
金钱豹国际美食百汇(世贸天阶店) 分店,/shop/2078671,自助餐 海鲜,朝阳区光华路9号世贸天阶中心L402-403号 65538888,自助餐 婚宴酒店 国贸 建外大街,酥皮奶油蘑菇汤 三文鱼 提拉米苏,215,7.4,8,7.8,5475,116.457664,39.922493
豆捞坊(西单店) 分店,/shop/2380366,火锅,西城区西单北大街131号大悦城7楼02号 59716881,其他火锅 西单,自助小料 菌王锅 美味鲜虾滑,89,8.2,8.7,8.3,5356,116.37944,39.917007
香草香草云南原生态火锅(大理店) 分店,/shop/2951611,火锅,海淀区苏州街55号名商大厦2楼 82621976,其他火锅 婚宴酒店 苏州桥,菌王奇香锅 豆腐拼盘 建水香豆腐,87,9,8.7,9.2,4879,116.312874,39.977993
海底捞火锅(劲松店) 分店,/shop/1888135,火锅,朝阳区南磨房路平乐园29号 87798911,其他火锅 劲松/潘家园 大望路,滑牛肉 柠檬水 虾滑,87,8.9,8.4,9.3,4867,116.483345,39.894043
干锅居,/shop/512894,贵州菜,海淀区中关村东路1号搜狐网络大厦2楼 58722008,贵州菜 五道口,苗家干锅鸡 老奶奶土豆泥 干锅茶树菇,63,7.4,7.2,6.8,4682,116.339165,39.99934
大董烤鸭店(团结湖店) 分店,/shop/509705,北京菜,朝阳区东三环长虹桥东南 65824003,烤鸭 创意菜 朝阳公园/团结湖,烤鸭 盐水鸭肝 宫保虾球,195,8.9,8.4,8.4,4679,116.470505,39.958675
花家怡园(四合院总店) 分店,/shop/507755,北京菜,东城区东直门内大街235号 51283315,婚宴酒店 家常菜 东直门,特色:霸王鸡??酸梅汤??花家白菜,176,8.8,9.1,8.7,4678,116.424995,39.9473
山吧(雁栖镇店) 分店,/shop/511487,北京菜,近郊怀柔区雁栖镇长园村318号 61627396,农家菜 怀柔,烤虹鳟鱼 扁豆排骨卷 炸花椒芽,91,7.7,8.2,7.1,4592,116.61053,40.41841
全聚德烤鸭店(前门店) 分店,/shop/508130,北京菜,东城区前门大街30号 65112418,烤鸭 婚宴酒店 前门,烤鸭 北京烤鸭 芥末鸭掌,158,8.3,8.3,8.1,4527,116.40471,39.90297
聚宝源,/shop/513329,火锅,西城区牛街西里商业1号楼5-2号 83545602,涮羊肉 牛街,烧饼 涮羊肉 手切羊肉,80,9.4,7.8,8.3,4327,116.368805,39.8923
王胖子驴肉火烧(鼓楼店) 分店,/shop/585475,小吃快餐,西城区鼓楼西大街80号 84023077,其他小吃 新街口 德外大街,驴肉火烧 驴杂汤 小米粥,23,9,6.5,7.2,4219,116.39656,39.94883
火宴山自助火锅(望京店) 分店,/shop/5422956,火锅 自助餐,朝阳区阜通东大街6号院方恒购物中心4楼 84783832,其他火锅 自助餐 望京,羊肉 蛋挞 寿司,58,8.6,8.8,8.8,4145,116.490234,39.997208
龙顺园麻辣香锅(亚运村店) 分店,/shop/512780,川菜,朝阳区慧忠路欧陆经典大厦西南角 64810510,香锅 亚运村,青笋 午餐肉 豆皮,68,8.2,6.1,6.9,3833,116.42613,40.00253
双流老妈兔头(双井店) 分店,/shop/3083767,川菜,朝阳区东三环南路48号 65405858,川菜 双井,麻辣兔头 五香兔头 酸汤肥牛,77,9,8.4,8.3,3827,116.46852,39.896122
汉堡王(西单大悦城店) 分店,/shop/3273034,西餐,西城区西单北大街甲131号西单大悦城3楼20号商铺 59716392,西式简餐 西单,皇堡 薯条 培根芝士皇堡,32,8.8,8.4,8.5,3807,116.38,39.9169
陈记卤煮小肠,/shop/1900186,小吃快餐,西城区取灯胡同3号 ,老北京小吃 前门,卤煮火烧 卤煮小肠 卤煮,17,8.7,5.2,5.9,3785,116.40055,39.903
麻辣诱惑(搜秀店) 分店,/shop/2189023,川菜,东城区崇文门外大街40号搜秀商城7楼 51671099,川菜 崇文门,水煮鱼 毛血旺 酸梅汤,81,8.6,8.7,8.6,3745,116.42751,39.900867
巴国布衣风味酒楼(地安门店) 分店 (暂停营业),/shop/507583,川菜,东城区地安门东大街89-3号 64008888,川菜 婚宴酒店 安定门 什刹海,三峡石爆脆肠 川北凉粉 毛血旺,67,7.4,7.8,6.5,3691,116.40371,39.939873
西贝西北菜(六里桥店) 分店,/shop/507685,西北菜,丰台区六里桥北里10号院 63316888,西北菜 婚宴酒店 六里桥/丽泽桥,莜面 功夫鱼 大拌菜,86,8.3,8.3,8.4,3527,116.31032,39.888775
江边城外烤全鱼(牡丹园店) 分店,/shop/2755150,川菜,海淀区花园路2号33号楼翠微百货牡丹美食街2号 62378953,烤鱼 北太平庄,香辣烤鱼 豆豉清江鱼 麻辣烤鱼,65,9,8.4,8.5,3482,116.37449,39.983715
麻辣诱惑(东直门店) 分店,/shop/581219,川菜,朝阳区东直门外大街46号天恒大厦3楼 84608558,川菜 三里屯 东直门,水煮鱼 毛血旺 酸梅汤,77,8.3,8.4,8.2,3451,116.44319,39.946262
宜家家居餐厅(四元桥店),/shop/1883626,小吃快餐,朝阳区阜通东大街59号3楼 64792345,快餐/简餐 望京,瑞典肉圆 甜筒 咖啡,34,8,7.6,7.4,3391,116.47051,39.982567
黑松白鹿(西坝河店) 分店,/shop/1933705,日本,朝阳区西坝河光熙门北里15号重庆饭店1楼 64201954,日式自助 左家庄,烤鳗鱼 生鱼片 三文鱼,162,7.9,7.8,8,3290,116.44238,39.969482
哈哈镜鸭脖子(簋街店) 分店,/shop/565291,小吃快餐,东城区东直门内大街6号 18611104055,熟食 食品茶酒 东直门,鸭脖 藕片 鸭肠,33,8.8,7.8,7.5,3239,116.436676,39.94691
海底捞火锅(北奥店) 分店,/shop/1947880,火锅,朝阳区惠新东街甲2号北奥大厦3楼 84639300,其他火锅 对外经贸,滑牛肉 抻面 虾滑,84,8.7,8.2,9.3,3204,116.432,39.994465
沸腾鱼乡(春秀路总店) 分店,/shop/508064,川菜,朝阳区工体北里1号华通新饭店内 64174988,川菜 婚宴酒店 三里屯,水煮鱼 馋嘴蛙 酸梅汤,94,8.5,8,7.7,3139,116.45062,39.941334
全聚德烤鸭店(王府井店) 分店,/shop/508128,北京菜,东城区王府井大街帅府园胡同9号 65253310,烤鸭 婚宴酒店 王府井/东单,烤鸭 精品烤鸭 芥末鸭掌,172,7.9,8,7.6,3112,116.41839,39.918495
四川仁火锅(双井桥店) 分店,/shop/2452222,火锅,朝阳区东三环八棵杨甲1号南侧 67769133,其他火锅 双井,滑嫩牛肉 鲜鸭血 鲜毛肚,85,8.6,8.5,8.5,3070,116.46814,39.89911
海底捞火锅(望京店) 分店,/shop/2114893,火锅,朝阳区望京街9号望京国际商业中心4楼 59203512,其他火锅 望京,虾滑 鸭血 抻面,89,8.9,8.6,9.4,3037,116.49138,39.996643
金鼎轩(亚运村店) 分店,/shop/1966930,小吃快餐,朝阳区大屯路安慧北里逸园15号楼4楼 4006766111,粤菜 婚宴酒店 亚运村,虾饺皇 蒸凤爪 皮蛋瘦肉粥,68,8.6,8.4,8.3,3033,116.4192,40.007946
金钱豹国际美食百汇(中关村店) 分店,/shop/3457330,自助餐 海鲜,海淀区丹棱街甲1号欧美汇商厦6楼 68038888,自助餐 婚宴酒店 中关村,三文鱼 酥皮奶油蘑菇汤 鹅肝,209,7.7,8.3,8.1,2980,116.32168,39.985233
香草香草云南原生态火锅(丽江店) 分店,/shop/3642082,火锅,朝阳区朝阳北路237号复星国际中心2楼 65851976,其他火锅 朝外大街,菌王奇香锅 建水豆腐 香格里拉嫩牦牛,93,9,8.9,9.3,2971,116.462,39.92966
西域饭庄,/shop/508371,新疆菜,西城区三里河路7号新疆驻京办事处院内B1楼 68332266-6613,新疆菜 西直门/动物园,羊肉串 自制酸奶 大盘鸡,60,8,5.7,6.2,2964,116.339165,39.938828
江边城外烤全鱼(朝外店) 分店,/shop/2370448,川菜,朝阳区朝外大街吉祥里小区206号楼 65526568,烤鱼 朝外大街,香辣烤鱼 豆豉烤鱼 麻辣烤鱼,66,9,8.4,8.4,2938,116.446655,39.93258
华天峨嵋酒家(车公庄店) 分店,/shop/508698,川菜,西城区北礼士路58号 88374437,川菜 婚宴酒店 阜成门,宫保鸡丁 凉面 鸡丝凉面,69,8.5,7.3,7.4,2928,116.36022,39.936657
麻辣诱惑(西直门店) 分店,/shop/2274049,川菜,西城区西直门外大街1号西环广场凯德MALL购物中心5楼 58302398,川菜 西直门/动物园,水煮鱼 毛血旺 酸梅汤,77,8.5,8.4,8.4,2918,116.3594,39.947205
拿渡麻辣香锅(西单大悦城店) 分店,/shop/2384890,川菜,西城区西单北大街甲131号西单大悦城7楼9号 59716237,香锅 西单,金针菇 青笋 午餐肉,68,7.7,7.2,6.5,2826,116.38,39.9169
南门涮肉(天坛店) 分店,/shop/511003,火锅,东城区永内东街东里13号楼-1-2号 67017030,涮羊肉 天坛,小料 鲜羊肉 羊肉,74,8.8,6.9,7.3,2770,116.41829,39.880302
海碗居(增光路总店) 分店,/shop/510289,小吃快餐,海淀区增光路11号 88374993,炸酱面 航天桥,炸酱面 爆肚 炸灌肠,52,8.4,7.7,8.1,2740,116.33749,39.933647
海底捞火锅(红庙店) 分店,/shop/2303326,火锅,朝阳区红庙延静西里2号东华商大厦2楼 65060403,其他火锅 大望路,滑牛肉 虾滑 鸭血,88,9,8.7,9.4,2724,116.48892,39.92184
胡大饭馆(东直门总店) 分店,/shop/510660,川菜,东城区东直门内大街（簋街）233号 64003511,川菜 东直门,麻辣小龙虾 馋嘴蛙 炸馒头片,91,8.9,7.8,8,2710,116.437355,39.946983
辣尚瘾(交大店) 分店,/shop/2987527,川菜,海淀区交通大学路8号 62253137,烤鱼 香锅 北下关,麻辣香锅 烤鱼 蓝莓山药,53,8.7,8.6,8.6,2690,116.35329,39.955063
海底捞火锅(白纸坊店) 分店,/shop/1968904,火锅,西城区广安门南街42号中建二局大厦1-2楼 51816880,其他火锅 右安门,海底捞滑牛肉 柠檬水 鲜鸭血,86,8.7,8.3,9.3,2675,116.35745,39.88223
林静小吃,/shop/514992,小吃快餐,海淀区复兴路 ,麻辣烫 五棵松,麻辣烫 麻辣凉面 酸辣粉,26,8.2,4.3,4.7,2656,116.28012,39.91351
三只耳冷锅鱼(保利店) 分店,/shop/2933764,火锅,朝阳区工体北路新中西里26号 64132228,其他火锅 三里屯,冷锅鱼 鸭血 虾滑,88,9,8.6,8.7,2651,116.445244,39.939796
麻辣诱惑(汉光百货店) 分店,/shop/1955323,川菜,西城区西单北大街176号汉光百货8楼 66037068,川菜 西单,水煮鱼 酸梅汤 毛血旺,78,8.3,8.3,8.2,2623,116.38082,39.915455
江边城外烤全鱼(亚运村店) 分店,/shop/3142537,川菜,朝阳区慧忠北路慧忠里123号楼 64924119,烤鱼 亚运村,香辣清江鱼 豆豉清江鱼 香辣烤鱼,63,8.7,8.3,8.5,2606,116.412346,40.005325
麻辣诱惑(五道口店) 分店,/shop/2524246,川菜,海淀区成府路28号五道口购物中心6楼 62666788,川菜 五道口,毛血旺 水煮鱼 酸梅汤,76,8.6,8.7,8.6,2603,116.34586,39.998333
秋栗香(地安门店) 分店,/shop/563284,小吃快餐,西城区地安门西大街2号 64016838,零食 地安门,糖炒栗子 瓜子 栗子,17,8.4,6.2,6.3,2591,116.402374,39.9396
海底捞火锅(马家堡店) 分店,/shop/2273050,火锅,丰台区马家堡西路11号2楼 67577027,其他火锅 草桥,滑牛肉 虾滑 柠檬水,87,8.9,8.6,9.3,2581,116.377426,39.854298
便宜坊烤鸭店(新世界店) 分店,/shop/2014639,北京菜,东城区崇文门外大街3-5号新世界百货青春馆3楼 67088680,烤鸭 婚宴酒店 崇文门,烤鸭 干烧鸭四宝 芥末鸭掌,103,8.2,8,7.9,2527,116.42452,39.904354
五哥鸡翅,/shop/514410,小吃快餐,东城区南板桥胡同5号 64001626,烧烤 东四,烤鸡翅 单面辣鸡翅 烤馒头片,55,8.3,3.7,4.2,2514,116.42662,39.938732
白家大院,/shop/510320,北京菜,海淀区苏州街15号乐家花园内 62658851,官府菜 婚宴酒店 苏州桥,宫廷小吃 鹿肉 豌豆黄,324,7.9,9.4,9,2501,116.312126,39.985207
麻辣诱惑(新中关店) 分店,/shop/2560066,川菜,海淀区中关村大街19号新中关购物中心2楼 82488228,川菜 中关村,毛血旺 水煮鱼 酸梅汤,76,8.8,8.5,8.8,2488,116.3212,39.98426
都一处烧麦馆(前门店) 分店,/shop/2677600,北京菜,东城区前门大街38号 67021555,家常菜 前门,三鲜烧麦 乾隆白菜 猪肉烧麦,56,7.9,7.8,7.2,2448,116.404564,39.902485
金钱豹国际美食百汇(亚运村店) 分店,/shop/562119,自助餐 海鲜,朝阳区大屯北路慧忠北里214号楼 51281888,自助餐 婚宴酒店 亚运村,哈根达斯 三文鱼 烤鳗鱼,214,7.4,7.7,7.7,2408,116.40958,40.01178
江边城外烤全鱼(魏公村店) 分店,/shop/3625624,川菜,海淀区魏公村街民族大学北路8号 88570500,烤鱼 魏公村,香辣烤鱼 豆豉清江鱼 藕片,64,9,8.4,8.4,2397,116.327385,39.959087
萨莉亚(西直门店) 分店,/shop/2538517,西餐,西城区西直门外大街112号华堂商场4楼 88385435,西式简餐 西直门/动物园,金枪鱼沙拉 米兰风味肉酱多利亚饭 香辣烤肠,38,7.3,7.3,7.1,2393,116.35256,39.944057
眉州东坡酒楼(亚运村店) 分店,/shop/510423,川菜,朝阳区慧忠北里111号楼 59683316,川菜 婚宴酒店 亚运村,东坡肘子 眉州香肠 担担面,66,8.5,8,8,2384,116.4131,40.012104
王府井小吃街,/shop/510518,小吃快餐,东城区王府井好友世界商场南 ,老北京小吃 景点/郊游 王府井/东单,羊肉串 冰糖葫芦 章鱼小丸子,38,4.4,3.8,4.3,2358,116.41758,39.917545
巴贝拉意式休闲餐厅(五道口店) 分店,/shop/2388583,西餐,海淀区成府路28号五道口购物中心5楼02号 62666179,西式简餐 五道口,Pizza 鸡翅 提拉米苏,48,6.8,7.3,6.3,2347,116.34586,39.99833
锦府盐帮酒楼(魏公村店) 分店,/shop/583710,川菜,海淀区中关村南大街31号空间技术研究院院内 68196222,川菜 婚宴酒店 魏公村,退秋鱼 骄子肥牛 白汤退秋鱼,103,8.6,8.8,8.2,2341,116.32999,39.953625
奶酪魏(牛街总店) 分店,/shop/1958782,小吃快餐,西城区广安门内大街202号107室 63522402,老北京小吃 广内大街,宫廷奶酪 杏仁豆腐 奶油炸糕,17,8.3,6.5,7.1,2320,116.36918,39.894447
麻辣诱惑(大钟寺店) 分店,/shop/511574,川菜,海淀区大钟寺太阳园小区西门旁 82119966,川菜 双榆树,水煮鱼 毛血旺 酸梅汤,74,8.2,8.2,8.1,2296,116.34542,39.977837
海底捞火锅(白家庄店) 分店,/shop/2144467,火锅,朝阳区白家庄路甲2号 65952982,其他火锅 朝外大街,滑牛肉 虾滑 鸭血,88,9,8.7,9.4,2294,116.463936,39.93385
新辣道鱼火锅(双安店) 分店,/shop/2127934,火锅,海淀区双榆树东里40号 82118833,鱼火锅 双榆树,梭边鱼 凉茶 魔芋丝,83,8,7.9,7.9,2275,116.33228,39.97411
唐人街海鲜自助餐厅,/shop/2808733,自助餐,朝阳区民族园路2号唐人街购物广场5楼 51994545,自助餐 婚宴酒店 亚运村,三文鱼 铁板烧 海鲜,104,6.9,7.8,7.5,2274,116.39691,39.98643
重庆孔亮火锅(东直门店) 分店,/shop/2372599,火锅,东城区东直门内大街218号 84044907,重庆火锅 东直门,毛肚 鳝鱼 金针菇,88,8.5,7.7,7.9,2264,116.4271,39.946938
西贝西北菜(双井店) 分店,/shop/3444637,西北菜,朝阳区东三环南路48号北人大酒店2楼 59627288,西北菜 婚宴酒店 劲松/潘家园 双井,酸奶 羊肉串 功夫鱼,81,8.6,8.4,8.8,2237,116.46877,39.894623
口福居火锅(大运村店) 分店,/shop/510622,火锅,海淀区知春路29号大学生公寓7-8号楼 82355888,涮羊肉 双榆树 中关村,羊肉 麻酱小料 肥牛,74,7.9,7.9,7.4,2207,116.349236,39.982952
眉州东坡酒楼(劲松店) 分店,/shop/510773,川菜,朝阳区劲松中街208号 67706866,川菜 婚宴酒店 劲松/潘家园,东坡肘子 眉州香肠 担担面,65,8.3,7.8,7.8,2147,116.46247,39.889706
宽店(鼓楼店),/shop/1889209,小吃快餐,西城区旧鼓楼大街135号 84040523,烧烤 什刹海 地安门,烤鸡翅 土豆泥 冰霜情果,52,8,6.1,6.1,2133,116.40022,39.949
三样菜,/shop/4683333,川菜,朝阳区工体北路8号工人体育场北门西侧 65523499,川菜 三里屯,凉拌素三样 酸汤肥牛 干烧鳝段,91,9.1,8.7,8.6,2124,116.45378,39.939156
川军本色(双安店) 分店,/shop/568990,川菜,海淀区北三环西路甲30号双天大厦 68400286,川菜 双榆树,香辣美容蹄 毛血旺 水煮鱼,72,9,8.4,8.4,2114,116.336105,39.972393
蛙蛙叫干锅年代(东直门簋街店) 分店,/shop/5541013,川菜 火锅,东城区东直门内大街288-6号 64093077,川菜 其他火锅 东直门,干锅牛蛙 酸菜炒饭 酸梅汤,75,8.9,8.6,8.7,2111,116.42378,39.94692
西贝西北菜(亚运村一店) 分店,/shop/511065,西北菜,朝阳区慧忠北路安慧北里安园8号楼1楼 64984455,西北菜 婚宴酒店 亚运村,功夫鱼 自制酸奶 大拌菜,75,8,7.8,8.3,2094,116.41897,40.00529
江边城外烤全鱼(民大一店) 分店,/shop/2178997,川菜,海淀区民族大学北路16号 68417169,烤鱼 魏公村,香辣烤鱼 豆豉烤鱼 麻辣烤鱼,63,8.4,7.4,6.9,2077,116.32616,39.959026
海底捞火锅(石景山店) 分店,/shop/2908501,火锅,石景山区石景山路乙18号万达广场c栋4楼 88689559,其他火锅 鲁谷,虾滑 滑牛肉 柠檬水,90,9.1,8.9,9.4,2040,116.23144,39.91128
小肥羊(东直门店) 分店,/shop/511825,火锅,东城区东直门内大街209号 84001669,其他火锅 东直门,滋补鸳鸯锅 羊肉 金针菇,72,8.2,7.9,7.9,2027,116.427025,39.94731
新辣道鱼火锅(惠新店) 分店,/shop/513114,火锅,朝阳区惠新东街9号 64967966,鱼火锅 对外经贸,梭边鱼 口口脆 魔芋,82,8.4,7.8,7.9,2023,116.430786,39.987694
戈拿旺巴西烤肉(朝外店) 分店,/shop/3273259,自助餐,朝阳区东大桥路8号SOHO尚都北塔B座4楼 59003318,拉美烧烤 自助餐 朝外大街 国贸,羊肉串 鸡翅 培根卷,81,8.8,8.9,9.2,2022,116.45999,39.92331
海底捞火锅(紫竹桥店) 分店,/shop/3329467,火锅,海淀区紫竹院路北洼路4号1区195号楼苏宁电器4楼 68716676,其他火锅 航天桥 紫竹桥,鸳鸯锅 虾滑 滑牛肉,88,9.1,9,9.4,2009,0,0
花家怡园(簋街店) 分店,/shop/515530,北京菜,东城区东直门内大街5号 51283316,家常菜 婚宴酒店 东直门,霸王鸡 花家白菜 酸梅汤,122,8.4,8.8,8.5,1996,116.4374,39.947292
金汉斯(西直门店) 分店,/shop/2504485,自助餐,西城区西直门内大街2号成铭大厦D座1楼 66002566,拉美烧烤 自助餐 西直门/动物园,蜜汁梅肉 鸡翅 培根,59,7.5,7.5,7.1,1994,116.36345,39.944927
满福楼大酒楼,/shop/507576,火锅,西城区地安门内大街38号 64030992,涮羊肉 婚宴酒店 地安门,鲜羊肉 涮羊肉 手切鲜羊肉,93,9.4,9,9.2,1972,116.402985,39.935745
东兴顺爆肚张,/shop/510329,小吃快餐,西城区什刹海前海东沿17号 64057412,老北京小吃 什刹海 地安门,爆肚 肚仁 羊杂汤,41,8.3,6.3,6.6,1965,116.40104,39.945045
将太无二(金泉广场餐厅) 分店,/shop/3488020,日本,朝阳区大屯里312号金泉广场F栋一层 84855900,日本料理 亚运村,三文鱼 CBD卷 三文鱼刺身,120,9.1,8.8,8.8,1956,116.41793,40.01226
水木锦堂铁板烧自助餐厅(五道口... 分店,/shop/2190157,日本 自助餐,海淀区五道口清华科技园D座2楼 82151999,自助餐 日式烧烤/铁板烧 五道口,凤尾虾 菲力牛排 三文鱼,161,8.5,8.7,8.5,1945,116.33803,40.000427
眉州东坡酒楼(石景山店) 分店,/shop/512421,川菜,石景山区石景山路22号万达广场 59683388,川菜 婚宴酒店 鲁谷,东坡肘子 眉州香肠 宫保鸡丁,72,8.1,8.1,7.7,1942,116.2327,39.91127
俏江南(东方广场店) 分店,/shop/509199,川菜,东城区东长安街1号东方广场B1楼BB88号 85186971,川菜 婚宴酒店 王府井/东单,江石滚肥牛 金牌水煮鱼 麻酱油麦菜,158,7.7,8.6,8.2,1923,116.42093,39.916023
麦当劳 分店,/shop/513342,小吃快餐,多家连锁店 ,快餐/简餐,麦辣鸡腿汉堡 奶昔 薯条,28,6.9,7,6.9,1922,116.454704,39.961258
炒豆合作社,/shop/1997656,小吃快餐,东城区东四北大街东四九条63号 84010276,烧烤 东四,蜜辣烤翅 番茄烤翅 黑椒土豆泥,57,8.7,8,8.5,1910,116.425995,39.939217
净心莲(长虹桥店) 分店,/shop/507883,素菜,朝阳区农展馆南里12号通广大厦院内 65923627,素菜 朝阳公园/团结湖,一指禅 素手卷 水煮鱼,212,8.4,9.1,9,1908,116.47049,39.940372
川成元麻辣香锅(西直门店) 分店,/shop/2301685,川菜,西城区西直门外大街1号凯德MALL购物中心L4-29号 58302423,香锅 西直门/动物园,金针菇 青笋 油豆皮,72,7.8,7.7,7.1,1897,116.35938,39.947174
香草香草云南原生态火锅(阿诗玛... 分店,/shop/4534036,火锅,丰台区蒲黄榆路28号B-C综合楼2楼 67676081,其他火锅 方庄,菌王奇香锅 牦牛肉 菌类拼盘,94,8.7,8.7,9,1878,116.42862,39.87002
新疆伊斯兰饭庄,/shop/512216,新疆菜,西城区三里河路7号新疆驻京办事处院内 68351820,婚宴酒店 新疆菜 月坛,特色:羊肉串??自制酸奶??大盘鸡,80,9.1,7.8,8,1877,116.339165,39.938828
老西安饭庄(新街口南大街店) 分店,/shop/508104,西北菜,西城区新街口南大街20号 66181748,西北菜 清真菜 新街口,羊肉泡馍 羊肉串 糖蒜,45,8.2,6.6,6.4,1859,116.37939,39.9462
辣婆婆(元大都店) 分店,/shop/1960495,川菜,海淀区北土城西路小月河北岸4号 62370808,川菜 北太平庄,水煮鱼 毛血旺 香辣虾,91,8.2,8.6,7.8,1855,116.36652,40.01283
蟹老宋香锅(西坝河店) 分店,/shop/509952,川菜 火锅,朝阳区西坝河光熙门北里34号楼 64238422,香锅 其他火锅 左家庄,香辣蟹 香辣虾 豆皮,65,8.2,7.9,8.1,1825,116.44121,39.97493
火宴山自助火锅(朝阳北路店) 分店,/shop/8074001,火锅 自助餐,朝阳区朝阳北路107号朝阳大悦城西侧罗马家园会所 58626830,其他火锅 自助餐 十里堡,蛋挞 寿司 羊肉,55,8.6,8.5,8.7,1822,116.523415,39.931053
高兴火锅,/shop/4719450,火锅,海淀区知春路甲20号 82356062,其他火锅 中关村 双榆树,嫩牛肉 手切羊肉 虾滑,78,9.1,8.8,9.5,1814,116.35247,39.981274
嘉和一品粥(五道口店) 分店,/shop/512619,小吃快餐,海淀区成府路29号 4007001008,粥店 五道口,皮蛋瘦肉粥 锅贴 一品粥,27,7.3,6.7,6.7,1805,116.34516,39.9988
旺顺阁鱼头泡饼店(大望路店) 分店,/shop/1998637,北京菜,朝阳区建国路88号八王坟现代城底商 85898800,家常菜 粤菜 大望路,鱼头泡饼 椒盐茶树菇 玉米汁,111,8.6,8.5,8.2,1801,116.48401,39.911892
戈拿旺巴西烤肉(菜市口店) 分店,/shop/516520,自助餐,西城区广安门内大街6号枫桦豪景西配楼 63560050,拉美烧烤 自助餐 广内大街,烤牛舌 烤鸡翅 烤培根卷牛里脊,78,8.5,8.6,9,1783,116.37847,39.893536
眉州东坡酒楼(魏公村店) 分店,/shop/2405902,川菜,海淀区中关村南大街27号魏公街8号 59683300,川菜 婚宴酒店 魏公村,东坡肘子 担担面 自制香肠,64,8.3,8.3,8,1771,116.32484,39.957577
三只耳川湘粤大酒楼(方庄店) 分店,/shop/2109325,川菜 火锅,丰台区蒲方路9号GOGO新世代1号楼 58070888,其他火锅 婚宴酒店 方庄 天坛,冷锅鱼 雪媚娘 三只耳鸡,78,8.3,8.3,8.3,1757,116.42851,39.873142
黑松白鹿(崇文门店) 分店,/shop/3706684,日本,东城区东打磨厂街7号新世界女子百货3楼 67087373,日式自助 崇文门,三文鱼 烤鳗鱼 美乃滋h扇贝,195,8.9,8.6,8.6,1754,116.419426,39.905678
辣尚瘾(牡丹园店) 分店,/shop/4221563,川菜,海淀区花园路2号翠微百货北门牡丹园餐饮街 57112866,烤鱼 香锅 北太平庄,麻辣香锅 蓝莓山药 香辣烤鱼,55,8.7,8.3,8.4,1732,116.37421,39.983707
江边城外烤全鱼(霄云路店) 分店,/shop/3625642,川菜,朝阳区霄云路35号院1栋 64670658,烤鱼 亮马桥/三元桥,烤鱼 豆豉清江鱼 麻辣清江鱼,67,8.8,8.7,8.7,1727,116.46879,39.962418
丰年灌肠,/shop/510328,小吃快餐,东城区隆福广场前街1号 ,老北京小吃 东四,炸灌肠 灌肠 小米粥,9,8.5,5.9,6,1717,116.42089,39.931446
沸腾鱼乡(西直门店) 分店,/shop/1960690,川菜,西城区西直门南大街2号成铭大厦2楼 51901776,川菜 婚宴酒店 西直门/动物园,水煮鱼 馋嘴蛙 毛血旺,104,8.3,8.2,7.9,1703,116.36374,39.945004
北新桥卤煮老店,/shop/508149,小吃快餐,东城区东四北大街141号 84015365,老北京小吃 东四,卤煮火烧 大肠卤煮 卤煮,25,8.9,6.7,6.9,1702,116.42323,39.94347
大董烤鸭店(金宝汇店) 分店,/shop/3178285,北京菜,东城区金宝街88号金宝汇购物中心5楼 85221234,烤鸭 婚宴酒店 王府井/东单,烤鸭 宫保虾球 芥末鸭掌,243,9.1,9.3,9,1684,116.42757,39.921497
秦唐府(朝阳门店) 分店,/shop/512830,小吃快餐 西北菜,东城区朝阳门内南小街69号 65598135,西北菜 其他小吃 朝阳门,肉夹馍 米皮 稠酒,35,8.6,7.9,7.8,1681,116.43244,39.928455
蟹老宋香锅(高粱桥店) 分店,/shop/508517,川菜 火锅,海淀区高梁桥斜街1号 62278246,香锅 其他火锅 北下关,香辣蟹 香辣虾 宽粉,60,8.4,8,8.3,1670,116.342384,39.957703
湖广会馆楚畹园,/shop/509242,湖北菜,西城区虎坊路3号 63553112,湖北菜 婚宴酒店 虎坊桥,酸汤鱼 三鲜豆皮 汗炉蒸鸭,71,7.8,8.1,7.1,1668,116.39084,39.895008
新川办餐厅,/shop/513812,川菜,朝阳区小红门路312号 87699988,川菜 婚宴酒店 十八里店,夫妻肺片 水煮鱼 川北凉粉,81,8.7,8.5,7.8,1655,116.46162,39.85578
西蜀豆花庄(新天地店) 分店,/shop/508028,川菜,东城区东长安街1号东方广场东方新天地B1楼CC16号 85185288,川菜 婚宴酒店 王府井/东单,水煮鱼 豆花 毛血旺,86,6.8,6.8,6,1653,116.42351,39.915794
鼎泰丰(新光天地店) 分店,/shop/2102164,小吃快餐,朝阳区建国路87号新光天地6楼D6001号 65331536,其他小吃 淮扬菜 大望路,蟹粉小笼 特色小笼汤包 糖醋小排,121,8.3,8.1,8.2,1649,116.484955,39.916454
渝乡人家(复兴门百盛店) 分店,/shop/508389,川菜,西城区复兴门内大街101号百盛购物中心南楼7楼 66023706,川菜 复兴门,水煮鱼 毛血旺 川北凉粉,73,7.8,7.4,7,1642,116.36519,39.9137
西贝西北菜(王府井APM店) 分店,/shop/6271139,西北菜,东城区王府井大街138号北京apm五层509店铺 65124600,西北菜 婚宴酒店 王府井/东单,酸奶 功夫鱼 黄馍馍,80,9.3,9.3,9.4,1629,116.41812,39.921474
海底捞火锅(王府井店) 分店,/shop/4212460,火锅,东城区王府井大街88号乐天银泰百货8楼 57620153,其他火锅 王府井/东单,虾滑 滑牛肉 肥牛,92,9.2,9.1,9.4,1620,116.41794,39.922016
大槐树烤肉馆,/shop/509169,小吃快餐,东城区美术馆东街23号 64008891,烧烤 东四,牛肉 五花 牛舌,78,8.6,5.2,7.4,1607,116.41679,39.931767
鼎泰丰(西单店) 分店,/shop/4111774,小吃快餐,西城区西单北大街133号君太百货B1楼 66159028,淮扬菜 其他小吃 西单,蟹粉小笼 小笼包 糖醋小排,112,8.7,8.4,8.6,1606,116.37986,39.915657
起司家(东四店) 分店,/shop/8064265,西餐,东城区东四北大街257号 84046683,面包西点 西式简餐 东四 地安门,焦糖榴莲布丁 脸盆沙拉 榴莲芝士蛋糕,48,9.1,9.2,8.9,1605,116.423546,39.937897
大清花(方庄店) 分店,/shop/509481,小吃快餐 东北菜,丰台区方庄蒲方路1号 67688275,东北菜 饺子 方庄,拔丝红薯 饺子 五彩大拉皮,67,7.7,7.2,7.2,1601,116.44389,39.87201
美の子日本料理,/shop/2880715,日本,海淀区万柳东路北纬四十度大酒店1楼 82561879,日本料理 日式自助 苏州桥,三文鱼 烤鳗鱼 北极贝,134,8.2,8.3,8.4,1593,116.30956,39.967785
戈拿旺巴西烤肉(海淀店) 分店,/shop/512206,自助餐,海淀区科学院南路知春东里13号楼 82133026,拉美烧烤 自助餐 中关村,牛舌 烤鸡翅 牛肩峰,78,8.4,8.2,8.8,1591,116.33239,39.979416
蓝钻国际美食自助百汇(西直门店) 分店,/shop/4734162,自助餐,海淀区高梁桥斜街59号中坤大厦内钟鼎楼食府3楼 62193338,自助餐 婚宴酒店 西直门/动物园,三文鱼刺身 冰激凌 酥皮蘑菇汤,161,8.6,8.8,9.1,1584,116.35688,39.94945
鬼味烤翅,/shop/2344891,小吃快餐,西城区交道口南锣鼓巷黑芝麻胡同20号 64075931,烧烤 地安门 安定门,土豆泥 鬼味烤翅 芥末烤翅,47,8.7,8.2,7.9,1581,116.40698,39.944637
坪亭铁板烧(中关村店) 分店,/shop/513362,日本,海淀区海淀南路26号 62538919,日式烧烤/铁板烧 日式自助 中关村,烤鳗鱼 三文鱼 北极贝,174,8.1,8.3,8,1579,116.31567,39.981476
陈阿婆鱼火锅(牡丹园店) 分店,/shop/4013473,火锅,海淀区花园东路2号中城写字楼2楼 62011283,鱼火锅 北太平庄,梭边鱼 虾滑 三味鱼锅,62,8.9,8.5,8.5,1570,116.37521,39.98467
印巷小馆(魏公村店) 分店,/shop/5414722,北京菜,海淀区中关村南大街魏公村街4号 88410598,家常菜 魏公村 西直门/动物园,金包咖喱鸡 甜汁爆鲜虾 印象红盖,74,8.2,8.4,8.2,1566,116.32823,39.95912
东来顺饭庄(新东安商场总店) 分店,/shop/510678,火锅,东城区王府井大街138号北京APM 5楼542-547 65280932,涮羊肉 王府井/东单,涮羊肉 手工切羊肉 糖蒜,123,7.5,6.9,6.3,1565,116.41812,39.921474
汉莱国际美食百汇,/shop/1935607,自助餐,海淀区中关村大街15号中关村广场购物中心1楼B区入口 59863535,自助餐 婚宴酒店 中关村,蒜蓉扇贝 三文鱼 甜点,160,7.9,8.4,8.3,1564,116.3229,39.985703
金簋簋街小山城(簋街一店) 分店,/shop/514239,火锅,东城区东直门内大街253号 84020856,其他火锅 东直门,馋嘴蛙 鸳鸯锅 牛蛙,85,8.3,6.1,6.7,1560,116.42497,39.94732
萨莉亚(欧美汇店) 分店,/shop/3447199,西餐,海淀区丹棱街甲1号欧美汇购物中心B1楼13单元 82484216,西式简餐 中关村,金枪鱼沙拉 肉酱多利亚饭 意面,35,7.6,7.5,7.4,1549,116.32168,39.985233
印巷小馆(好运街店) 分店,/shop/4719387,北京菜,朝阳区朝阳公园路好运街1-8号 58670286,家常菜 朝阳公园/团结湖 亮马桥/三元桥,金包咖喱鸡 甜汁爆鲜虾 印巷红盖,77,8.3,8.5,8.4,1535,116.47794,39.957207
张妈妈特色川味馆,/shop/3224647,川菜,东城区安定门内大街分司厅胡同5号 13717850992,川菜 安定门,钵钵鸡 连山回锅肉 张妈妈小炒,42,9,6.1,7,1527,116.41398,39.950573
新辣道鱼火锅(西直门店) 分店,/shop/3306151,火锅,西城区西直门外大街1号西环广场凯德MALL购物中心5楼 58301963,鱼火锅 西直门/动物园,梭边鱼 徐妈豆腐 蟹粉丸,85,8.6,8.3,8.2,1524,116.3594,39.947205
呷哺呷哺(新中关购物中心店) 分店,/shop/1974373,火锅,海淀区中关村大街19号新中关购物中心B1楼 82486010,其他火锅 中关村,麻酱小料 蔬菜拼盘 羊肉套餐,40,8.3,7.8,8,1517,116.321945,39.984425
那家小馆(植物园店) 分店,/shop/512775,北京菜,海淀区香山一棵松29号 82598588,官府菜 婚宴酒店 香山,秘制酥皮虾 皇坛子 桂花山药,115,8.5,8.8,8.6,1513,116.216324,39.998783
豆捞坊(崇文门店) 分店,/shop/3054160,火锅,东城区崇文门外大街18号国瑞购物中心3F-32号 67172156,其他火锅 崇文门,虾滑 炸豆皮 丸滑组合,86,8.7,9.1,8.5,1512,116.42557,39.904636
全聚德烤鸭店(清华园店) 分店,/shop/1926541,北京菜,海淀区中关村东路1号院清华科技园科技大厦A座1楼 82150018,烤鸭 婚宴酒店 五道口,烤鸭 芥末鸭掌 盐水鸭肝,133,8.8,8.8,8.6,1507,116.33713,39.999783
护国寺小吃店(地安门店) 分店,/shop/509774,小吃快餐,西城区地安门外大街180号 64042946,老北京小吃 地安门 什刹海,豌豆黄 面茶 奶油炸糕,15,8,6.1,6.3,1506,116.402824,39.940067
都一处烧麦馆(方庄店) 分店,/shop/511154,北京菜,丰台区蒲芳路1-6号方庄芳城园美食街15号楼 67606235,家常菜 方庄,三鲜烧麦 乾隆白菜 猪肉烧麦,69,7.7,7.6,7.1,1504,116.4429,39.871986
皇家冰窖小院,/shop/2639713,北京菜,西城区恭俭胡同5巷5号 64011358,官府菜 地安门 什刹海,冰窖凉浸带鱼 冰窖秘制乌梅汁 清宫烤羊腿,99,8,8.5,8,1498,116.39968,39.936596
那家小馆(酒仙桥店) 分店,/shop/4175269,北京菜,朝阳区酒仙桥北路2号 59789333,官府菜 婚宴酒店 酒仙桥,秘制酥皮虾 皇坛子 自制豆腐,123,8.8,9.3,9,1497,116.50036,39.993782
8号苑秘制火锅(西单一店) 分店,/shop/3006772,火锅,西城区新建胡同8号 66088880,其他火锅 西单,八号凉面 灭火器 鱼豆腐,51,8.1,7.8,8.1,1495,116.3864,39.920036
香妃烤鸡(西单店) 分店,/shop/508995,小吃快餐,西城区西单横二条2号 66088676,快餐/简餐 西单,烤鸡 烧饼 泡菜,23,8.2,7,6.9,1486,116.383156,39.917995
辣尚瘾(人大店) 分店,/shop/3537253,川菜,海淀区万泉河路68号 82650566,烤鱼 香锅 苏州桥,蓝莓山药 麻辣香锅 香辣烤鱼,56,8.3,8,7.9,1486,116.3146,39.97323
南门涮肉(前海店) 分店,/shop/2066287,火锅,西城区南官房胡同1号什刹海茶艺酒吧街 83227033,涮羊肉 地安门,手切鲜羊肉 麻酱 烧饼,78,9.1,8.6,8.5,1478,116.39828,39.940247
竹鱼坊(东单店) 分店,/shop/1960831,川菜,东城区东单北极阁三条53号 65222335,烤鱼 王府井/东单,麻辣烤鱼 豆豉烤鱼 泡椒烤鱼,72,7.8,7.2,5.9,1477,116.42589,39.917255
旺顺阁鱼头泡饼店(奥体东门店) 分店,/shop/512280,北京菜,朝阳区安苑路1号 64911199,家常菜 粤菜 亚运村,鱼头泡饼 玉米汁 椒盐茶树菇,106,8.1,7.9,7.6,1465,116.415665,39.989216
便宜坊烤鸭店(三里屯店),/shop/5477216,北京菜,朝阳区工体北路13号世茂百货4楼 84059699,烤鸭 婚宴酒店 三里屯,烤鸭 盐水鸭肝 干炸丸子,108,8.4,8.8,8,1462,116.45621,39.939735
哇哇叫,/shop/4220057,火锅,东城区东直门外大街27号4楼 64617073,其他火锅 东直门 三里屯,干锅牛蛙 蓝莓山药 馋嘴蛙火锅,68,8.9,8.5,8.7,1457,116.45198,39.947243
功德林素菜饭庄,/shop/2266465,素菜,东城区前门东大街甲2号 67020867,素菜 前门,功德冬菜包 孜然羊肉串 糖醋排骨,89,8,8.1,8,1457,116.41808,39.90671
隐泉日本料理(光华东路店) 分店,/shop/507748,日本,朝阳区光华东路甲8号和乔大厦C座2楼 65813939,日本料理 大望路 国贸,摩托罗拉卷 三文鱼刺身 隐泉沙拉,186,8.6,8.6,8.3,1456,116.47817,39.919205
海碗居(牡丹园店) 分店,/shop/514779,小吃快餐,海淀区花园路2号 82070488,炸酱面 北太平庄,炸酱面 爆肚 驴打滚,45,7.9,7.3,7.7,1454,116.37381,39.983734
江边城外烤全鱼(簋街店) 分店,/shop/4287815,川菜,东城区东直门内大街15-2号 84078678,烤鱼 东直门,香辣烤鱼 豆豉烤鱼 清江鱼,68,8.8,8.3,8.5,1452,116.43348,39.94732
江边城外烤全鱼(方庄店) 分店,/shop/4214760,川菜,丰台区芳古路芳群园二区12-1号 67660240,烤鱼 方庄,香辣烤鱼 豆豉清江鱼 麻辣烤鱼,69,9,8.6,8.5,1450,116.437,39.869785
天厨妙香素食馆(五道口店) 分店,/shop/509331,素菜,海淀区中关村东路1号清华科技园创业大厦1楼110室 62797078,素菜 五道口 中关村,糙米饭 随缘解馋 水煮鱼,57,8.6,8.5,8.7,1428,116.33611,40.000904
北京万豪酒店城墙小馆,/shop/2671657,自助餐,东城区建国门南大街7号北京万豪酒店1楼 58118888,自助餐 建国门/北京站,三文鱼 冰激凌 甜点,151,7.6,8.8,8.6,1418,116.44103,39.91061
猫眼餐厅(北外店) 分店,/shop/513876,西餐,海淀区魏公村西口厂洼路外研社旁胡同内 68417219,比萨 魏公村,金枪鱼沙拉 超级至尊 pizza,46,7.3,7,7.1,1405,116.31209,39.95948
姑姑宴(西直门店) 分店,/shop/3056221,小吃快餐 川菜,西城区西直门外大街1号凯德MALL购物中心5楼29号 58301058,川菜 其他小吃 西直门/动物园,龙抄手 钟水饺 徐府燃面,48,7.3,7.7,7,1401,116.35908,39.947105
新辣道鱼火锅(崇文门店) 分店,/shop/2264299,火锅,东城区崇文门东兴隆街56号北京商界2楼 67022078,鱼火锅 崇文门,梭边鱼 油豆皮 酸菜丸子,84,8.3,8,8.1,1400,116.42104,39.903244
望京一号,/shop/2210437,川菜,朝阳区东辛店大望京村1号 64320332,川菜 望京,水煮鱼 花椒鸡 一鱼两吃,72,8.4,8.2,7.6,1397,116.50643,40.00919
湘肠香火锅店(团结湖店) 分店,/shop/511945,火锅,朝阳区姚家园路团结湖东里甲3-1号 85966628,其他火锅 湘菜 朝阳公园/团结湖,肥肠火锅 泡饼 大碗菜花,65,9,7.1,7.7,1396,116.47652,39.935677
小王府(光华东路店) 分店,/shop/510028,北京菜,朝阳区光华东里2号楼 65943602,家常菜 国贸,飘香排骨 烤鸭 宫保鸡丁,76,7.8,7.3,7.5,1388,116.463745,39.916286
眉州东坡酒楼(团结湖店) 分店,/shop/508781,川菜,朝阳区团结湖东里1号楼 85980158,川菜 婚宴酒店 朝阳公园/团结湖,东坡肘子 眉州香肠 宫爆鸡丁,65,8.2,7.9,7.9,1387,116.477135,39.935867
东来顺饭庄(双井店) 分店,/shop/3701701,火锅,朝阳区东三环中路18号东环国际大厦3楼 58538999,涮羊肉 国贸,羊肉 小料 烧饼,69,8.7,8,8.1,1387,116.46884,39.902027
傲辣火锅,/shop/5515399,火锅,朝阳区民族园路8号院2号楼 82997003,火锅 亚运村,鲜切羊肉 虾滑 自制豆腐,76,9.2,9,9.2,1380,116.39465,39.9879
豆捞坊(东直门店) 分店,/shop/3047323,火锅,东城区东直门南大街1号来福士购物广场5F-03号 84098371,其他火锅 东直门,虾滑 菌王锅底 炸豆皮,83,8.8,9,8.7,1371,116.43914,39.94644
大鸭梨烤鸭店(上地店) 分店,/shop/515301,北京菜,海淀区上地农大南路树村东北口 62973182,烤鸭 婚宴酒店 上地,烤鸭 水煮鱼 干锅茶树菇,64,7.5,8.1,6.9,1371,116.312645,40.032997
芝士蜜餐厅(小菊儿胡同店) 分店,/shop/5322808,西餐,东城区南锣鼓巷小菊儿胡同69号 64053523,其他西餐 安定门 地安门,榴莲芝士蛋糕 紫薯蛋糕 提拉米苏,37,9.1,8.3,8.7,1364,116.41009,39.94633
东来顺饭庄(中关村海图店) 分店,/shop/581603,火锅,海淀区海淀大街34号华海大厦2楼 82611636,涮羊肉 中关村,涮肉 羊肉 麻酱,67,8.3,7.9,7.7,1360,116.314095,39.98824
辣尚瘾(芍药居店) 分店,/shop/3537250,川菜,朝阳区太阳宫芍药居甲3号 58490809,烤鱼 香锅 对外经贸,麻辣香锅 蓝莓山药 烤鱼,54,8.9,8.5,8.6,1357,116.44481,39.988815
大鸭梨烤鸭店(劲松店) 分店,/shop/579003,北京菜,朝阳区南磨房路34号楼天客隆大厦 67347158,烤鸭 婚宴酒店 劲松/潘家园 大望路,烤鸭 水煮鱼 宫保鸡丁,63,8.1,8.1,7.8,1355,116.475624,39.889805
田老师红烧肉 分店,/shop/513070,小吃快餐,多家连锁店 ,快餐/简餐,红烧肉盖饭 卤蛋 酸豆角盖饭,15,6.3,5.5,5.4,1351,116.454704,39.961258
西贝西北菜(三元桥店) 分店,/shop/3516520,西北菜,朝阳区东三环北路乙2号海南航空大厦B1楼 63453535,西北菜 婚宴酒店 亮马桥/三元桥,功夫鱼 羊肉串 酸奶,80,8.6,8.6,8.8,1338,116.4637,39.96408
江边城外烤全鱼(外经贸紫光大厦... 分店,/shop/4175455,川菜,朝阳区惠新东街11号紫光发展大厦B3-202号 64823928,烤鱼 对外经贸,香辣烤鱼 豆豉烤鱼 麻辣烤鱼,64,9,8.7,8.8,1338,116.43434,39.98439
没名儿生煎(五道口店) 分店,/shop/5983552,小吃快餐,海淀区成府路29号国际食尚苑A-5号 4008965880,其他小吃 五道口,没名儿生煎 生煎 灌汤包,18,8.6,8.1,8.4,1328,116.282196,39.947083
白记年糕(牛街北口店) 分店,/shop/585842,小吃快餐,西城区牛街5号牛街清真超市1楼 ,老北京小吃 牛街,驴打滚 年糕 豌豆黄,17,9.1,7.6,7.9,1326,116.36984,39.89336
农场・农夫烤鸡 分店,/shop/2206405,小吃快餐,多家连锁店 67532781,熟食 食品茶酒,骨肉相连 奥尔良烤鸡 烤鸡,15,7.6,4.9,6.1,1323,0,0
川成元麻辣香锅(崇文门店) 分店,/shop/3070318,川菜,东城区崇外大街18号国瑞购物中心A座B1楼35号 67147638,香锅 崇文门,麻辣香锅 青笋 午餐肉,72,8.2,8.1,7.9,1323,116.42706,39.90519
江边城外烤全鱼(上地店) 分店,/shop/3625636,川菜,海淀区上地信息路甲28号科实大厦1楼 82781832,烤鱼 上地,豆豉烤鱼 香辣烤鱼 香辣清江鱼,64,9,8.6,8.7,1316,116.31812,40.040466
爆肚冯(菜市口店) 分店,/shop/510492,小吃快餐,西城区菜市口十字路口西南莲花胡同 83558088,老北京小吃 菜市口,爆肚 肚仁 羊杂汤,54,8.3,6.5,6.3,1315,116.37966,39.896023
盘古七星酒店自助餐厅,/shop/2901988,自助餐,朝阳区北四环中路27号盘古大观酒店2楼 59067002,自助餐 亚运村,龙虾仔 鹅肝 龙虾,467,9,9.3,9.3,1311,116.392944,39.995716
面兑面(东四店) 分店,/shop/3689446,小吃快餐,东城区东四头条7号 64008781,粉面馆 东四,万州肉酱面 黄瓜条 肥肠面,19,8.6,8.3,8.6,1309,116.42466,39.93116
华天延吉餐厅(西四总店) 分店,/shop/508113,小吃快餐,西城区西四北大街181号 66153293,粉面馆 西四,延吉冷面 辣牛肉 冷面,29,7.5,6.4,6,1308,116.37962,39.932716
黑松白鹿(新源里店) 分店,/shop/2650186,日本,朝阳区新源西里东街2号 64606236,日式自助 亮马桥/三元桥,三文鱼 烤鳗鱼 黑松白鹿寿司,193,8.8,8.6,8.8,1308,116.456696,39.952843
金百万烤鸭店(马甸店) 分店,/shop/510689,北京菜,朝阳区马甸裕民路3号 62380012,烤鸭 婚宴酒店 安贞,烤鸭 精品烤鸭 水煮鱼,61,8.4,8.1,8.4,1307,116.39713,39.979435
万记麻辣烫(静安里店) 分店,/shop/513301,小吃快餐,朝阳区静安里党校路 ,麻辣烫 左家庄,麻辣烫 酸辣粉 烤馒头片,34,7.9,6,5.9,1306,116.45337,39.964016
重庆杨家火锅(三里屯店) 分店,/shop/3380929,火锅,朝阳区春秀路幸福二里 64158899,重庆火锅 三里屯,鸭肠 嫩牛肉 毛肚,100,8.8,7.9,7.8,1303,116.45116,39.944675
四川仁火锅(新兴桥店) 分店,/shop/3576685,火锅,海淀区西三环中路 68519878,其他火锅 公主坟/万寿路,菌汤 嫩牛肉 鸭血,82,8.7,8.6,8.7,1287,116.317245,39.915993
好伦哥 分店,/shop/3551377,自助餐,多家连锁店 82605799,自助餐,鸡翅 冰激凌 酸奶,49,6.3,6.8,6.6,1285,0,0
小杨楼私房菜馆(西单店) 分店,/shop/6336049,北京菜,西城区西牛角胡同1号 66069665,家常菜 创意菜 西单,贵妃宫保鸡 杨楼奶酪 甜汁酥皮虾,62,8.8,8.5,8.5,1284,116.38207,39.918175
黑土印象(亚运村店) 分店,/shop/511757,东北菜,朝阳区慧忠路安慧里二区1号楼 64985015,东北菜 亚运村,东北大拉皮 锅包肉 小鸡炖蘑菇,58,8.3,8.2,7.9,1278,116.41833,40.00112
汉堡王(新世界店) 分店,/shop/4209470,西餐,东城区崇文门外大街3-5号新世界百货青春馆1-2楼 67082899,西式简餐 崇文门,皇堡 薯条 培根芝士皇堡,31,9,8.8,8.8,1274,116.42452,39.904358
九花山烤鸭店,/shop/509973,北京菜,海淀区增光路55号紫玉饭店1-2楼 68414518,烤鸭 婚宴酒店 航天桥,烤鸭 盐水鸭肝 芥末鸭掌,150,8.5,7.7,6.9,1273,116.31859,39.93493
辣界麻辣香锅(鼓楼老店),/shop/2421790,川菜,西城区北二环鼓楼桥 62035558,香锅 地安门,鱼豆腐 青笋 午餐肉,63,7.9,7.9,7.4,1270,116.397675,39.9552
美栗乡(西安门店) 分店,/shop/566327,小吃快餐,西城区西安门大街93号 66170874,零食 食品茶酒 西四,糖炒栗子 瓜子 糖葫芦,17,8.9,6,6.6,1269,116.38511,39.929035
G先生厨房,/shop/2454607,小吃快餐 川菜,海淀区中关村大街19号新中关购物中心4楼 82488019,其他小吃 香锅 中关村,麻辣香锅 木桶饭 荷叶饭,37,7.8,6.9,6.6,1259,116.32265,39.984303
隆福寺小吃店(隆福寺店) 分店,/shop/511243,小吃快餐,东城区隆福寺前街1号 64060668,老北京小吃 东四,奶油炸糕 豌豆黄 面茶,17,6.9,5.5,5.2,1258,116.42011,39.931484
木屋烧烤(国展店) 分店,/shop/5739514,小吃快餐,朝阳区西坝河中里6号 64636651,烧烤 亮马桥/三元桥,烤扇贝 烤生蚝 烤全翅,64,8.4,8.3,8.3,1253,116.44854,39.969547
蜀国演义酒楼(东直门店) 分店,/shop/2042491,川菜,东城区东直门南大街5号中青旅大厦2楼 58156122,川菜 婚宴酒店 东直门,水煮鱼 毛血旺 酸菜鱼,88,8.8,9,8.9,1249,116.438416,39.943752
呷哺呷哺(中关村步行街店) 分店,/shop/582367,火锅,海淀区中关村广场商业步行街 ,其他火锅 中关村,羊肉套餐 蔬菜拼盘 豆皮,39,7.7,6.2,6.3,1249,0,0
西贝西北菜(交大店) 分店,/shop/5264987,西北菜,海淀区交大东路18号速8酒店1-2楼 51466055,西北菜 婚宴酒店 北下关 西直门/动物园,酸奶 面筋 功夫鱼,75,9.2,9,9.2,1245,116.34754,39.96705
T6香辣火锅(五道口店) 分店,/shop/511588,火锅,海淀区成府路35号华清嘉园12-3-4号 82865074,其他火锅 五道口,菌类拼盘 酸梅汤 香辣锅,73,7.7,7.5,7,1239,116.343735,39.99739
朱题・猪手火锅(亚运村店) 分店,/shop/3305770,火锅,朝阳区安苑北里16号楼 64937405,其他火锅 亚运村,猪手火锅 木瓜猪蹄火锅 7月4日蘸料,75,8.5,7.9,8.4,1238,116.41517,39.991356
摸错门牛肚王(双安店) 分店,/shop/1934026,火锅,海淀区北三环西路甲30号双天大厦1楼 68400389,其他火锅 双榆树,牛肚 豆腐皮 牛肚王,65,7.9,7.2,7.1,1238,116.33658,39.97269
渝信川菜(长安店) 分店,/shop/508383,川菜,东城区建国门内大街7号长安大戏院1楼 65171012,川菜 建国门/北京站,水煮鱼 毛血旺 口水鸡,74,8.6,8.2,8,1235,116.436806,39.91541
天府豆花庄(西单店) 分店,/shop/510533,小吃快餐 川菜,西城区西单北大街180号西单文化广场B1楼 66068123,川菜 其他小吃 西单,鸡丝凉面 麻辣香锅 凉面,35,7.8,5.2,5.7,1235,116.382,39.91495
天津百饺园(西单店) 分店,/shop/511120,小吃快餐,西城区新文化街甲12号 66059375,饺子 西单,猪肉三鲜 蟹黄饺子 鲅鱼水饺,60,8.4,7.7,7.2,1233,116.37951,39.909946
多佐多国精致料理餐厅,/shop/2647642,日本,朝阳区东三环中路65号富力广场9楼 59037198,日式自助 双井,芝士h大虾 鹅肝 挪威三文鱼,296,8.6,8.9,8.8,1233,116.467514,39.899548
安诚居干锅鸭头(八角店) 分店,/shop/2242489,火锅,石景山区八角南里14栋底商 88926002,其他火锅 古城/八角,干锅鸭头 烧饼 麻团,58,9.1,7.1,7.3,1230,116.20804,39.916435
萨莉亚(东直门店) 分店,/shop/2942740,西餐,东城区东直门外大街48号银座百货写字楼夹层3C楼 84549645,西式简餐 东直门,金枪鱼沙拉 多利亚肉酱饭 意面,39,7.8,7.6,7.7,1228,116.44186,39.946205
西贝西北菜(朝阳大悦城店) 分店,/shop/6026269,西北菜,朝阳区朝阳北路101号朝阳大悦城7楼09号铺 85515115,西北菜 婚宴酒店 十里堡,黄馍馍 面筋 酸奶,75,8.8,8.8,9.1,1214,116.52751,39.929585
眉州东坡酒楼(望京店) 分店,/shop/2344609,川菜,朝阳区广顺南大街10号院6号楼 59683500,川菜 婚宴酒店 望京,东坡肘子 眉州香肠 宫保鸡丁,69,8.6,8.3,8.2,1214,116.4813,39.995117
乔外婆(方庄店) 分店,/shop/2191453,川菜,丰台区方庄路芳星园二区9号楼 67675625,香锅 方庄,麻辣香锅 鸡翅 水晶山楂,68,8.7,7.7,8,1213,116.445015,39.86985
馅老满(安定门店) 分店,/shop/509358,小吃快餐,东城区安定门内大街252号 64046944,饺子 安定门,老满饺子 招牌饺子 宫保鸡丁,42,8.5,7.4,7.4,1212,116.415115,39.94941
黑松白鹿(海淀万柳店) 分店,/shop/4174387,日本,海淀区巴沟路2号华联万柳购物中心4楼F401-402号铺 82589588,日式自助 苏州桥,三文鱼 烤鳗鱼 黑松白鹿卷,195,9.1,8.8,8.8,1209,116.30174,39.979195
华天峨嵋酒家(地安门店) 分店,/shop/3670741,川菜,西城区地安门外大街155号 64043097,川菜 地安门,宫保鸡丁 鸡丝凉面 峨嵋豆腐,65,8.6,7.8,7.9,1202,116.402466,39.94004
御马墩,/shop/512509,川菜,海淀区新街口外大街19号北师大东门励耘学苑1-2楼 58805221,川菜 婚宴酒店 北太平庄,茶树菇石锅鸡 水煮鱼 三峡石爆肥牛,79,7.8,8.6,8.1,1201,116.37692,39.967133
麻辣诱惑(石景山万达店) 分店,/shop/2814988,川菜,石景山区石景山路乙18号万达广场4号楼商业步行街301号 88689939,川菜 鲁谷,水煮鱼 毛血旺 酸梅汤,79,8.3,8.5,8.5,1195,116.23253,39.911617
小杨楼私房菜馆(西直门店) 分店,/shop/5304049,北京菜,海淀区交大东路52号院 62259110,家常菜 创意菜 北下关 西直门/动物园,贵妃宫保鸡 杨楼奶酪 甜汁酥皮虾,58,8.5,8.4,8.3,1193,116.35561,39.955605
兄弟川菜(簋街老店) 分店,/shop/509739,川菜,东城区东直门内大街162号 84025686,川菜 东直门,泉水牛蛙 毛血旺 水煮鱼,72,8.5,7.9,7.8,1183,116.430756,39.946934
太熟悉家常菜(团结湖店) 分店,/shop/511978,北京菜,朝阳区团结湖路团结湖公园东门南侧 85984766,家常菜 婚宴酒店 朝阳公园/团结湖,宫爆鸡丁 水煮鱼 烤鸭,58,7.3,6.8,6.5,1183,116.473465,39.931034
一麻一辣麻辣香锅(两广大街店) 分店,/shop/2499901,川菜,西城区骡马市大街121号莱茵酒店1楼 63034229,香锅 菜市口,青笋 牛肉丸 鸡翅,68,8.5,8.1,8,1182,116.38651,39.895935
庆丰包子铺(新街口店) 分店,/shop/512017,小吃快餐,西城区新街口南大街16号 83284636,包子 新街口,猪肉三鲜包子 炒肝 梅干菜包子,16,7.1,6,5.6,1179,116.379395,39.94631
天厨妙香素食馆(朝外店) 分店,/shop/3452620,素菜,朝阳区朝阳门外大街乙6号朝外SOHO大厦D座2楼0260号 59001288,素菜 朝外大街 国贸,随缘解馋 吉祥三宝 红颜知己,61,9.1,9,9.1,1178,116.461296,39.92502
非常鱼麻辣碳锅鱼,/shop/3429829,川菜,西城区新街口南大街大帽胡同乙1号 66181220,烤鱼 新街口,碳锅鲶鱼 宽粉 豆皮,44,8.3,6.9,8.4,1175,116.3788,39.941982
西贝西北菜(崇文门店) 分店,/shop/5530562,西北菜,东城区东打磨厂街7号新世界女子百货B1楼 67039669,西北菜 婚宴酒店 崇文门,酸奶 羊肉串 功夫鱼,72,9.2,8.9,9.3,1171,116.419426,39.905678
铁锅一居(牡丹园店) 分店,/shop/2064913,西北菜,海淀区花园东路牡丹园西里11号 82076568,西北菜 北太平庄,排骨干豆角焖面 酿皮 冰冻酸奶,57,8.5,8.1,8.1,1171,116.37682,39.984177
老磁器口豆汁店(天坛店) 分店,/shop/512664,小吃快餐,东城区天坛北门对面 67035725,老北京小吃 天坛,焦圈 豆汁 豆汁儿,10,8.1,6.1,6.4,1171,116.419785,39.895138
净饭,/shop/2316673,素菜,海淀区万柳中路碧水云天底商1号楼 82565205,素菜 西式简餐 苏州桥,帕尼尼 醋汁鱼 土豆盏,75,8.1,8.7,8.8,1168,116.29851,39.97356
海底捞火锅(方庄店) 分店,/shop/4212462,火锅,丰台区蒲方路26-2号 67616839,其他火锅 方庄,虾滑 滑牛肉 小料,93,9.2,9.1,9.5,1165,116.43428,39.871536
鼎鼎香(东环店) 分店,/shop/512998,火锅,东城区东中街40号元嘉国际公寓2楼 64179289,其他火锅 东直门,烧饼 极品羊肉 小料,150,8.2,8.5,7.9,1165,116.443214,39.94232
麻里麻里香锅(朝阳门店) 分店,/shop/2405065,川菜,朝阳区朝阳门外大街12号昆泰商城3楼 65992518,香锅 朝外大街,青笋 午餐肉 红薯条,46,8.1,8,8.1,1162,116.45113,39.92882
海底捞火锅(万柳华联店) 分店,/shop/4017142,火锅,海淀区巴沟路2号华联万柳购物中心4楼L420-L507-L508号铺 82589332,其他火锅 苏州桥,虾滑 滑牛肉 鸭血,89,9.3,9,9.5,1157,116.30174,39.9792
新疆巴州金丝特餐厅,/shop/511586,新疆菜,海淀区皂君庙2号新疆巴州驻京办事处内 62111856,新疆菜 北下关,大盘鸡 酸奶 羊肉串,65,8.5,7.2,6.8,1155,116.34695,39.96951
四季民福烤鸭店(灯市口店) 分店,/shop/510377,北京菜,东城区灯市口西街32号东华饭店1楼 65135141,烤鸭 王府井/东单,烤鸭 巧拌豆苗 贝勒烤肉,98,9.1,8.6,8.8,1149,116.414894,39.924526
大食代(东方广场店) 分店,/shop/511483,小吃快餐,东城区东长安街1号东方广场B1楼 85186182,快餐/简餐 王府井/东单,麻辣香锅 红豆冰山 麻辣烫,29,6.2,5.3,5.3,1148,116.42093,39.916023
戈拿旺巴西烤肉(崇文门店) 分店,/shop/4072492,自助餐,东城区东兴隆街56号北京商界2楼 67025190,拉美烧烤 自助餐 崇文门,烤鸡翅 羊肉串 牛舌,80,8.9,8.8,9.2,1145,116.421326,39.903248
添一顺,/shop/512233,火锅,海淀区北四环西路88-17号空军指挥学院北门1号 88443629,羊蝎子 婚宴酒店 颐和园,羊蝎子 抻面 鲜羊蝎子,70,9,7.2,7.3,1140,116.28563,39.977264
小螺号柳州螺蛳粉,/shop/4273054,小吃快餐,西城区护国寺街55号 13601137718,粉面馆 新街口,螺蛳粉 酸笋 炸腐竹,19,8.7,7.3,8,1139,116.383415,39.941257
集天小吃(人大店) 分店,/shop/511820,小吃快餐,海淀区人民大学南区食堂 62512888,其他小吃 中关村,麻辣香锅 酸菜鱼米线 羊肉烩面,27,7.5,7,6.5,1132,116.32045,39.97414
四条印象之蚝酷(东四店) 分店,/shop/2234200,小吃快餐,东城区东四四条甲83号 64001172,烧烤 东四,蒜蓉生蚝 蒜蓉扇贝 鸡翅,78,8.2,6.6,6.5,1130,0,0
好伦哥(魏公村店) 分店,/shop/510460,自助餐,海淀区魏公村5号 68482082,自助餐 魏公村,鸡翅 烤鸡翅 水果沙拉,49,7.3,7.7,7.6,1129,116.329384,39.96038
全聚德烤鸭店(奥运村店) 分店,/shop/511658,北京菜,朝阳区大屯路慧忠北里309号楼天创世缘A座1-3楼 64801685,烤鸭 婚宴酒店 亚运村,烤鸭 盐水鸭肝 芥末鸭掌,153,8.2,8.3,8.2,1127,116.41364,40.010223
金钱豹国际美食百汇(朝阳大悦城... 分店,/shop/3899089,自助餐 海鲜,朝阳区朝阳北路101号朝阳大悦城9楼 81558888,自助餐 婚宴酒店 十里堡,三文鱼 冰淇淋 酥皮汤,207,7.8,8.5,8.3,1125,116.52422,39.9298
汉堡王(东方新天地店) 分店,/shop/4289713,西餐,东城区东长安街1号东方广场东方新天地B1楼美食街CC08-10号 85182432,西式简餐 王府井/东单,皇堡 薯条 火烤牛肉汉堡,29,9,8.8,8.8,1124,116.418945,39.9159
陈阿婆鱼火锅(虎坊桥店) 分店,/shop/3363232,火锅,西城区珠市口西大街临6号 63023160,鱼火锅 虎坊桥,梭边鱼 虾滑 鸭血,64,9,8.7,9,1123,116.393234,39.89553
便宜坊烤鸭店(安华店) 分店,/shop/508452,北京菜,海淀区北三环中路6-6号 82081019,烤鸭 婚宴酒店 北太平庄,烤鸭 芥末鸭掌 盐水鸭肝,106,8.1,7.9,7.6,1119,116.39476,39.973747
太熟悉家常菜(惠新店) 分店,/shop/582124,北京菜,朝阳区惠新东街19号 64910580,家常菜 婚宴酒店 对外经贸,水煮鱼 宫保鸡丁 烤鸭,63,7.6,7.9,7.4,1116,116.43084,39.983833
蟹老宋香锅(朝阳路总店) 分店,/shop/3218962,川菜 火锅,朝阳区朝阳路柴家湾11号 65951519,香锅 其他火锅 大望路,香辣蟹 香辣虾 香辣牛蛙,69,8.5,8.5,8.5,1115,116.48577,39.92108
黔道贵州草本火锅(北航店),/shop/4135371,火锅 贵州菜,海淀区学院路甲38号长城电脑大厦1楼 82968115,贵州菜 其他火锅 北太平庄,招牌美蛙鱼头锅 梭边鱼 精品小羊羔肉,50,8.3,8,8.5,1115,116.36122,39.98753
小六汤包(知春路店) 分店,/shop/5866981,小吃快餐 北京菜,海淀区知春路甲20号 82357933,包子 家常菜 双榆树,虾肉汤包 黄桂粥 牛肉汤包,38,8.8,8.8,9.2,1113,116.3578,39.981903
永和大王 分店,/shop/510563,小吃快餐,多家连锁店 ,快餐/简餐,豆浆 油条 冰豆浆,21,6.9,7,6.8,1111,116.454704,39.961258
乐圣量贩KTV自助餐(中关村店) 分店,/shop/581376,自助餐,海淀区中关村南大街32号中关村科技发展大厦 62140299,自助餐 魏公村,卤肉饭 自助餐 麻辣烫,48,5.1,5.8,5.4,1107,116.33139,39.954876
老诚一锅(东四北大街店) 分店,/shop/515398,火锅,东城区东四北大街249号 64069909,羊蝎子 东四,羊蝎子火锅 宽粉 葱花饼,70,8.4,6.8,7.2,1107,116.423485,39.93811
木生火烤研院(知春路店) 分店,/shop/2632135,小吃快餐,海淀区知春路29号大运村公寓7号楼底商 82355534,烧烤 双榆树 中关村,鸡翅 烤小排 奶油土豆泥,54,7.6,6.8,6.8,1101,116.35193,39.983425
爆肚冯(前门店) 分店,/shop/2087896,小吃快餐,西城区前门大街门框胡同廊坊二条56号 63083296,老北京小吃 前门,爆肚 肚仁 百叶,42,8.5,6.1,6.8,1100,116.401405,39.903156
东四民芳餐厅(朝内大街店) 分店,/shop/509615,北京菜,东城区朝阳门内大街79号 64068858,家常菜 朝阳门,鱼头泡饼 宫保鸡丁 焦溜丸子,63,8.5,7.4,7.7,1096,116.43713,39.93071
竹园村大酒店餐厅,/shop/511061,火锅,海淀区北太平路16号竹园村大酒店内 88625688,其他火锅 五棵松,猪蹄火锅 猪蹄鸳鸯锅 猪蹄,70,8.8,8.2,8.2,1095,116.26672,39.909504
天下特色粉(汉光店) 分店,/shop/1940698,小吃快餐,西城区横二条59号西单明珠商场东南角 ,粉面馆 西单,酸辣粉 金针菇 鱿鱼,13,8.1,2.9,4.7,1089,116.38236,39.91659
麻辣诱惑(富力广场店) 分店,/shop/2647645,川菜,朝阳区东三环中路65号富力广场4楼433号 59037040,川菜 双井,金牌水煮鱼 毛血旺 麻辣诱惑蛙,83,8.7,8.6,8.7,1086,116.467514,39.89955
老车记麻辣香锅(五道口店) 分店,/shop/2369638,川菜,海淀区成府路28号五道口购物中心5楼03号 62666180,香锅 五道口,青笋 金针菇 油豆皮,63,7.5,7.5,7.2,1074,116.34586,39.998333
友仁居华安肥牛火锅(花园路店) 分店,/shop/508022,火锅,海淀区花园东路8号2楼 82030123,其他火锅 北太平庄,酸梅汤 肥牛 羊肉,67,8.1,8.1,7.9,1071,116.38191,39.99296
m会所 分店,/shop/1933615,北京菜,朝阳区建国门外大街乙12号双子座大厦F楼 51096013,官府菜 婚宴酒店 国贸,江石滚肥牛 水煮鱼 招牌脆皮鸡,330,7.2,8.8,8.3,1071,116.45519,39.913467
郭林家常菜(六道口店) 分店,/shop/511596,北京菜,海淀区清华东路25号 82377660,家常菜 婚宴酒店 五道口,烤鸭 宫保鸡丁 水煮鱼,62,7.8,7.9,7.5,1070,116.35885,40.007366
老舍茶馆(前门店) 分店,/shop/507786,北京菜,西城区前门西大街正阳市场3号楼 63036830,茶馆 婚宴酒店 前门,茉莉花茶 炸酱面 龙井虾仁,104,8,8.6,8.3,1068,116.39982,39.905994
西贝西北菜(颐和园店) 分店,/shop/508456,西北菜,海淀区青龙桥三岔口甲84号 62862150,西北菜 婚宴酒店 颐和园,功夫鱼 羊肉串 酸奶,75,8.7,8.5,8.6,1067,116.280014,40.009514
钓鱼台国宾馆,/shop/1924072,北京菜,海淀区阜成路2号 58591188,官府菜 婚宴酒店 航天桥,佛跳墙 乌鱼蛋汤 鱼翅,1356,8.6,9.4,9.2,1066,116.33896,39.92838
蟹老宋香锅(方庄店) 分店,/shop/510288,川菜 火锅,丰台区南三环东路甲8号 67605668,香锅 其他火锅 方庄,香辣蟹 香辣虾 武汉豆皮,64,8.4,8.1,8.3,1065,116.43218,39.86382
利群烤鸭店,/shop/510477,北京菜,东城区前门东大街北翔凤胡同11号 67025681,烤鸭 前门,烤鸭 芥末鸭掌 盐水鸭肝,131,7.5,5.2,5.1,1065,116.412704,39.904713
三个贵州人(建外SOHO店) 分店,/shop/512251,贵州菜,朝阳区东三环中路39号建外SOHO东区7号楼0717室 58690598,贵州菜 国贸,酸汤鱼 米豆腐 馋嘴骨,85,7.7,7.6,7.2,1064,116.464615,39.910473
麻辣诱惑(十里堡店) 分店,/shop/2331547,川菜,朝阳区十里堡甲3号都会国际A座2楼 65579989,川菜 十里堡,水煮鱼 毛血旺 酸梅汤,73,8.5,8.5,8.6,1063,116.50801,39.921646
东来顺饭庄(王府井店) 分店,/shop/507865,火锅,东城区王府井大街198号 65139661,涮羊肉 王府井/东单,涮羊肉 糖蒜 烧饼,122,6.9,6.5,6.2,1062,116.418015,39.916904
玖食龙虾主题餐厅(好运街店) 分店,/shop/3509857,海鲜,朝阳区朝阳公园路好运街1-14号 58670299,创意菜 海鲜 亮马桥/三元桥,奶油黑胡椒龙虾 龙虾粥 清酒鹅肝,162,8.2,8.3,8.3,1060,116.47799,39.95695
香满楼酒家(新源店),/shop/509048,北京菜,朝阳区新源西里中街 64674391,烤鸭 左家庄,烤鸭 盐水鸭肝 糟溜鱼片,89,8.7,6.8,7.2,1058,116.45289,39.952545
阿春家蟹黄鲍鱼生煎包(西单北大... 分店,/shop/4207403,小吃快餐,西城区西单北大街7号 ,包子 西四,蟹黄生煎 蟹黄汤包 免费小菜,46,7.8,6.6,6.9,1058,116.37994,39.924377
郭林家常菜(五道口店) 分店,/shop/511314,北京菜,海淀区王庄路15号 82389996,家常菜 婚宴酒店 五道口,烤鸭 宫爆鸡丁 水煮鱼,58,6.9,6.5,6.2,1055,116.346436,40.002224
汉丽轩烤肉超市(航天桥店) 分店,/shop/564351,自助餐,海淀区西三环北路72号世纪经贸大厦A座2楼 51798012,自助餐 韩国料理 紫竹桥,培根 五花肉 鱿鱼,44,5.6,4.2,5.4,1052,116.31743,39.935146
丽江庭院之柔软时光(鼓楼店) 分店,/shop/2718640,火锅,西城区旧鼓楼大街国旺胡同18号 84048836,其他火锅 云南菜 什刹海 安定门,芝士丸 斑鱼片 蟹籽丸,130,8.4,9,8.8,1050,116.40208,39.9516
姑姑宴(五道口店) 分店,/shop/3172144,小吃快餐,海淀区成府路28号五道口购物中心5楼 62666192,其他小吃 五道口,龙抄手 徐府燃面 钟水饺,45,7.6,8,7.1,1050,116.34587,39.998337
陈阿婆鱼火锅(苏州桥店) 分店,/shop/2567752,火锅,海淀区北三环西路 68461815,鱼火锅 苏州桥,梭边鱼 虾滑 菌汤,60,8.8,8.4,8.6,1047,116.35242,39.972816
鼎泰丰(当代店) 分店,/shop/2892946,小吃快餐,海淀区中关村大街40号当代商城7楼 62696726,淮扬菜 其他小吃 中关村 双榆树,蟹粉小笼 特色小笼 糖醋小排,123,8.7,8.6,8.5,1042,116.32789,39.976055
一麻一辣麻辣香锅(魏公村店) 分店,/shop/2393923,川菜,海淀区中关村南大街27号中扬大厦西侧 68938238,香锅 魏公村,牛肉丸 鸡翅 青笋,64,8.2,8.3,8,1033,-117.12657,39.954597
陈阿婆鱼火锅(长椿街店) 分店,/shop/3077194,火锅,西城区长椿街甲16号 63016382,鱼火锅 牛街 宣武门,梭边鱼 阿婆嫩牛肉 虾滑,72,9.1,8.6,8.7,1030,116.37017,39.90036
麻辣诱惑(长虹桥店) 分店,/shop/2358061,川菜,朝阳区农展馆南里12号通广大厦2楼 65389880,川菜 朝阳公园/团结湖,水煮鱼 毛血旺 酸梅汤,79,8.5,8.4,8.6,1029,116.4696,39.940018
辣尚瘾(五道口店) 分店,/shop/5329626,川菜,海淀区成府路蓝旗营公交车站旁 62558138,香锅 五道口,麻辣香锅 烤鱼 蓝莓山药,53,9.1,8.6,8.7,1023,116.330215,39.997894
全聚德烤鸭店(方庄店) 分店,/shop/561370,北京菜,丰台区蒲方路18号 67602008,烤鸭 婚宴酒店 方庄,烤鸭 精品烤鸭 盐水鸭肝,115,8.7,8.4,8.3,1018,116.43818,39.871555
汉堡王(朝阳大悦城店) 分店,/shop/4062949,西餐,朝阳区朝阳北路101号朝阳大悦城8楼02号铺 85522722,西式简餐 十里堡,皇堡 薯条 培根芝士皇堡,31,9.2,8.9,8.9,1018,116.52751,39.929585
小肥羊(安慧北里店) 分店,/shop/510480,火锅,朝阳区慧忠北路安慧北里雅园1号楼 64962888,其他火锅 亚运村,锅底 羊肉 羔羊肉,71,8.1,8.1,7.7,1013,116.41871,40.004967
印巷小馆(牡丹园店) 分店,/shop/6079985,北京菜,海淀区花园路甲2号院4号楼 82247886,家常菜 北太平庄,金包咖喱鸡 印巷红盖 甜汁爆鲜虾,70,8.3,8.5,8.3,1008,116.37345,39.986008
爆肚皇,/shop/511024,小吃快餐,东城区东直门外大街15号楼4-101号 64614659,老北京小吃 东直门,爆肚 肚仁 羊杂汤,48,8.7,6.7,7.3,1008,116.447075,39.947334
林之雨铁板烧料理(望京店) 分店,/shop/4232740,日本,朝阳区阜通东大街6号院4号楼方恒购物广场3楼 84785991,日式烧烤/铁板烧 望京,三文鱼 h扇贝 烤鳗鱼,157,8.3,8.7,8.7,1007,116.48897,39.995632
金源福城肥牛(远大路店) 分店,/shop/512954,火锅,海淀区远大路1号金源新燕莎MALL5楼 88875288,其他火锅 远大路,特价肥牛 酸梅汤 肥牛,67,7.9,7.5,7.7,1006,116.29456,39.96503
康师傅私房牛肉面(新中关店) 分店,/shop/1997878,小吃快餐,海淀区中关村大街19号新中关购物中心B1楼D225室 82486882,粉面馆 中关村,私房牛肉面 麻香辣烫牛肉面 半筋半肉面,32,6.8,7.1,6.9,1005,116.3212,39.98426
陶然居,/shop/510714,川菜,朝阳区朝阳门外大街12号昆泰商城4楼 65993330,川菜 婚宴酒店 朝外大街,福寿螺 水煮鱼 毛血旺,81,7.1,7.7,6.8,1004,116.45113,39.92882
巴依老爷新疆美食(中关村店) 分店,/shop/2719198,新疆菜,海淀区中关村东路118号北三环联想桥金五星服装市场东北角 82111181,新疆菜 清真菜 双榆树,酸奶 羊肉串 大盘鸡,62,8.9,7.7,7.8,995,116.34311,39.974148
东来顺饭庄(前门大街店) 分店,/shop/3498361,火锅,东城区前门大街步行街南口143号农业银行对面2楼 83172716,涮羊肉 前门,羊肉 羊上脑 火锅,86,8.4,8.5,8.1,994,116.43185,39.921368
金釜山烤肉(天兆家园店) 分店,/shop/3258112,自助餐,西城区西直门北大街41号天兆家园1号楼3楼 62246091,自助餐 婚宴酒店 西直门/动物园,培根 五花肉 鲜榨果汁,47,7.6,7.2,7.2,992,116.36088,39.957787
9号食库,/shop/2398021,北京菜,东城区东四南大街报房胡同9号 65129192,家常菜 婚宴酒店 东四,宫保鸡丁 9号炸鸡 西红柿牛腩,52,8.4,8,7.9,991,116.423454,39.92826
青年餐厅(龙德店) 分店,/shop/4065310,北京菜,昌平区立汤路186号龙德广场5楼F525号 83616656,家常菜 婚宴酒店 天通苑,青年拌菜 香辣美容蹄 宫保鸡丁,67,8.3,8.5,8.2,990,116.42263,40.066067
兰亭猪手火锅,/shop/2974381,火锅,西城区鼓楼东大街232号 64039535,其他火锅 地安门 什刹海,木瓜猪手火锅 玉米 牛肉丸,65,8,7.8,7.6,990,116.40512,39.946827
天兴居(鲜鱼口店) 分店,/shop/508495,小吃快餐,东城区前门鲜鱼口街95号 67116865,老北京小吃 前门,炒肝 包子 猪肉大葱包子,16,8.4,7.8,7.5,985,116.40617,39.902603
四条印象之蚝酷(西单店) 分店,/shop/2505982,小吃快餐,西城区西单大秤钩胡同13号 66055344,烧烤 西单,蒜蓉扇贝 蒜蓉生蚝 鸡翅,84,7.9,6.4,5.8,982,116.38305,39.915928
番茄火锅(大慧寺店) 分店,/shop/512320,火锅,海淀区大慧寺路2号 62189567,其他火锅 北下关,番茄锅底 绿豆沙 秘制排骨,62,7.8,6.2,7.1,982,116.34055,39.957615
玉林烤鸭店(华威桥店) 分店,/shop/4125777,北京菜,朝阳区南新园中路106号 87311536,婚宴酒店 鲁菜 劲松/潘家园,特色:烤鸭??糖醋里脊??蓝莓山药,91,9.1,9.1,9,979,116.47415,39.874405
仿膳饭庄,/shop/507715,北京菜,西城区景山西街北海公园东门内 64042573,官府菜 地安门,豌豆黄 芸豆卷 肉末烧饼,204,8,8.7,8.2,978,116.3976,39.932163
便便满屋饭堂,/shop/3178186,小吃快餐,西城区地安门外大街91号 84035296,快餐/简餐 地安门 什刹海,马桶咖喱鸡饭 便便冰激凌 招牌便便黑干屎,48,4.9,7.4,6.8,978,116.402374,39.94221
九头鸟酒家(北太平庄店) 分店,/shop/509388,湖北菜,海淀区北太平庄有研大厦东楼1楼 82021390,湖北菜 婚宴酒店 北太平庄,莲藕排骨 黄豆炖猪蹄 清蒸武昌鱼,56,7.5,6.7,6.8,972,116.378044,39.973534
鼎泰丰(渔阳店) 分店,/shop/512804,小吃快餐,朝阳区新源西里中街24号 64624502,其他小吃 淮扬菜 亮马桥/三元桥,蟹粉小笼 小笼汤包 糖醋小排,125,8.3,8.3,8.2,968,116.45162,39.952534
京天红(虎坊桥店) 分店,/shop/516235,小吃快餐,西城区虎坊桥7号 63530403,其他小吃 虎坊桥,炸糕 包子 宫保鸡丁,16,8.4,6.9,7.3,967,116.39078,39.89473
8号学苑(80后主题店) 分店,/shop/6110578,火锅,西城区德胜门内大街172号 66088880,其他火锅 什刹海,凉面 糖饼 灭火器,57,8.5,8.5,8.8,966,116.38584,39.947914
山城辣妹子重庆火锅(朝阳北路店) 分店,/shop/513593,火锅,朝阳区朝阳北路172号 65004888,重庆火锅 大望路,鸳鸯锅 麻团 绿豆汤,69,8.5,8.1,8,965,116.4887,39.928413
京味楼(车公庄旗舰店) 分店,/shop/2027416,北京菜,西城区车公庄大街9号院五栋大楼A栋1单元1楼 88395246,家常菜 婚宴酒店 阜成门,烤鸭 炸灌肠 抓炒虾仁,83,8,8.2,7.9,963,116.35363,39.938347
德记炙炉烤肉(西四店) 分店,/shop/4113369,小吃快餐,西城区西安门大街136号 66019586,烧烤 西四,烤牛肉 烤牛舌 烤羊肉,50,8.5,7.5,8.3,959,116.38125,39.92842
池记串吧(鼓楼桥店) 分店,/shop/513031,小吃快餐,东城区旧鼓楼外大街68号 62370807,烧烤 安定门,鸡脆骨 烤鸡翅 羊肉串,64,6.3,5.9,5.6,958,116.400406,39.95615
国贸烤翅(四惠桥店) 分店,/shop/2268001,小吃快餐,朝阳区大望桥东 85806075,烧烤 大望路,蜜汁烤翅 骨肉相连 原味鸡翅,62,7.8,6,6,957,116.48741,39.91417
川辣汇(西单大悦城店) 分店,/shop/2489245,川菜,西城区西单北大街甲131号西单大悦城7楼 59716325,川菜 西单,水煮鱼 毛血旺 酸梅汤,70,5.9,6.8,5.5,953,116.38,39.9169
兄弟川菜(元大都店) 分店,/shop/2608822,川菜,朝阳区北土城东路元大都酒吧街西4号 84646588,川菜 对外经贸 亚运村,泉水牛蛙 毛血旺 水煮鱼,67,8.9,8.6,8.6,952,116.43348,39.982956
馄饨侯(鼓楼店) 分店,/shop/510469,小吃快餐,东城区鼓楼东大街309号 64042021,老北京小吃 地安门 什刹海,鲜肉馄饨 虾肉馄饨 小笼汤包,20,6.3,6.2,6,951,116.40329,39.947243
水木锦堂铁板烧自助餐厅(朝外店) 分店,/shop/6123204,日本 自助餐,朝阳区关东店28号宫霄酒店 65929991,自助餐 日式烧烤/铁板烧 朝外大街,菲力牛排 凤尾虾 三文鱼,158,9,9.1,8.8,950,116.45848,39.92629
珍滋味港式粥火锅(新源西里店) 分店,/shop/513762,火锅,朝阳区新源西里中街8号 64650514,其他火锅 亮马桥/三元桥,粥底火锅 虾滑 墨鱼滑,92,8.7,8.3,8.6,949,116.45393,39.954185
大渔铁板烧(安贞店) 分店,/shop/1928578,日本,朝阳区北三环胜古中路胜古家园3号楼 64448855,日式烧烤/铁板烧 日式自助 安贞,三文鱼刺身 鳕鱼 火焰牛排,204,8.4,8.4,8,948,116.417854,39.976494
世纪谭府酒楼(五道口店) 分店,/shop/2399893,北京菜,海淀区成府路28号五道口购物中心6楼 62666120,官府菜 婚宴酒店 五道口,一品豆腐 面包酥鸭 京烧羊肉,92,7.9,8.6,8.5,947,116.34639,39.997196
雅玛花式铁板烧餐厅(中关村店) 分店,/shop/3993193,日本 自助餐,海淀区中关村大街15号中关村广场步行街R24号 59863691,自助餐 日式烧烤/铁板烧 中关村,鳕鱼 开背虾 牛排,190,8.3,8.3,8.5,944,116.32093,39.98596
很久以前只是家串店(朝阳店) 分店,/shop/6209476,小吃快餐,朝阳区朝阳区慈云寺桥向东500 米路南 58442418,烧烤 十里堡,鸡翅 羊肉串 五花肉,80,8.6,8.9,8.7,940,116.50092,39.92185
眉州东坡酒楼(草桥店) 分店,/shop/515474,川菜,丰台区镇国寺北街草桥欣园一区5号楼底商 59683599,川菜 婚宴酒店 草桥,东坡肘子 自制香肠 宫爆鸡丁,68,8.3,8.1,7.9,937,116.365105,39.852257
黄记煌三汁焖锅(西单店) 分店,/shop/1933312,川菜 火锅,西城区西单北大街109号婚庆大楼7楼 66132238,其他火锅 香锅 西单,鲶鱼锅 红薯 泡饼,68,7.5,7.2,7.1,937,116.3802,39.92044
小肥羊(知春路店) 分店,/shop/4024846,火锅,海淀区知春路29号大运村公寓大运金都2楼 82359038,其他火锅 双榆树,羊肉 鸳鸯锅 肥牛,70,8.4,8.2,7.8,935,116.35193,39.983425
将太无二(蓝色港湾餐厅) 分店,/shop/4566102,日本 火锅,朝阳区朝阳公园路6号蓝色港湾酒吧街2栋一层 59056363,日本料理 其他火锅 亮马桥/三元桥,雪花牛肉 蟹钳虾肉寿司滑 焦糖布丁,133,9,8.9,8.8,935,116.48247,39.955795
芭夯兔(和平里店) 分店,/shop/4267829,火锅,东城区和平里中街19号天元和平商业大厦东侧底商 84223682,其他火锅 和平里,芭夯菌类汤锅 兔腿 兔里脊,65,9,8.3,8.6,934,116.42655,39.963654
西贝西北菜(辛店路店) 分店,/shop/4214922,西北菜,朝阳区北苑路甲76号 51737799,西北菜 婚宴酒店 亚运村 北苑家园,功夫鱼 酸奶 面筋,74,8.8,8.7,8.8,933,116.43812,40.02112
水平有限螺蛳粉,/shop/3560008,小吃快餐,海淀区成府路35号华清嘉园7号楼B1楼 52451805,其他小吃 五道口,螺蛳粉 炸腐竹 酸笋,20,8.4,7.9,8.1,933,116.34008,39.998127
老头猪蹄猪肘,/shop/2207077,小吃快餐,海淀区西翠路3号院门口 ,熟食 五棵松,猪蹄 猪肘 老汤,54,9.1,6.8,8.5,933,0,0
大鸭梨烤鸭店(亚运村店) 分店,/shop/511290,北京菜,朝阳区大屯路甲2号 64861646,烤鸭 婚宴酒店 亚运村,烤鸭 蓝莓山药 水煮鱼,61,7.7,7.8,6.6,930,116.38349,40.00755
羲和雅苑烤鸭坊(中关村店) 分店,/shop/2401177,北京菜,海淀区中关村大街15-3号 51722256,烤鸭 婚宴酒店 中关村,烤鸭 狮子头 糖醋小排,136,8.7,9,8.6,929,116.316475,39.987114
悦宾饭馆(翠花胡同店) 分店,/shop/511897,北京菜,东城区翠花胡同43号 85117853,家常菜 王府井/东单,蒜泥肘子 五丝桶 锅塌豆腐,55,8.3,6.3,7.2,928,116.41388,39.93019
郭林家常菜(丰台店) 分店,/shop/512899,北京菜,丰台区西四环南路56号望园大厦1楼 63830414,家常菜 婚宴酒店 北大地,烤鸭 宫爆鸡丁 土豆泥,79,7.5,8,7.3,927,116.29038,39.87296
独门冲(簋街总店) 分店,/shop/513712,川菜,东城区东直门内大街15-3号 84062040,烤鱼 东直门,麻辣烤鱼 香辣烤鱼 豆豉烤鱼,69,8,7.1,7.7,927,116.4334,39.947323
双井轩,/shop/2322973,北京菜,朝阳区广渠门外大街 58622507,家常菜 双井,饺子 纸包羊肉 蓝莓山药,82,8.4,8.5,8.1,923,116.45161,39.89949
呷哺呷哺(五道口华联店) 分店,/shop/2950870,火锅,海淀区五道口购物中心B1楼华联超市 ,其他火锅 五道口,麻酱小料 金针菇 肥牛,38,8.5,7.9,8.2,922,116.34586,39.99833
正院大宅门(亚运村店) 分店,/shop/507571,北京菜,朝阳区惠新北里3号楼 64952166,官府菜 婚宴酒店 亚运村,石烤虾 宅门骨 麻豆腐,140,7.8,8.4,8.2,920,116.42692,39.98976
馅老满(亚运村店) 分店,/shop/1966510,小吃快餐,朝阳区慧忠北路安慧北里雅园5号楼 64972097,饺子 亚运村,老满饺子 炸灌肠 饺子,44,8.4,7.2,7.4,918,116.41742,40.00502
李老爹(亚运村店) 分店,/shop/510540,火锅,朝阳区北四环东路安慧里四区15号楼五矿大厦1楼 64896611,其他火锅 亚运村,香辣蟹 香辣虾 鱼头火锅,91,8,8,7.8,917,116.418915,39.995487
眉州东坡酒楼(尚街店) 分店,/shop/2313859,川菜,朝阳区青年路尚街购物中心3楼 59683355,川菜 婚宴酒店 十里堡,东坡肘子 眉州香肠 担担面,65,8.4,8.4,8.1,915,116.52387,39.923283
巴贝拉意式休闲餐厅(国瑞城店) 分店,/shop/3147307,西餐,东城区崇文门外大街18号国瑞购物中心B1楼 67165933,西式简餐 崇文门,鸡翅 披萨 芝香培根h豆泥,50,7,7.4,6.9,915,116.42553,39.90441
小肥羊(今典花园店) 分店,/shop/1940419,火锅,海淀区索家坟2号 62247110,其他火锅 北太平庄,羊羔肉 宽粉 豆皮,73,8.1,7.8,7.7,914,116.36498,39.957096
蜀正园火锅,/shop/510499,火锅,海淀区中关村南大街11号 88578880,其他火锅 婚宴酒店 魏公村,羊肉 鸡蛋 金针菇,63,8.4,8.2,8.4,907,116.32956,39.962196
宽板凳老灶火锅(北新桥店) 分店,/shop/2004520,火锅,东城区雍和宫大街88号 64077754,其他火锅 安定门,巴蜀牛肉 鸭肠 鸭血,88,8.7,7.4,7.8,905,116.42331,39.94846
博味堂自然素食,/shop/2715154,素菜,朝阳区北苑路安慧里一区14-9号 57127280,素菜 亚运村,火焰豆腐 一指禅 铁板\椒牛柳,74,8.2,8.8,8.9,904,116.42162,39.998074
蜜桃餐厅(朝阳大悦城店) 分店,/shop/4060363,贵州菜,朝阳区朝阳北路101号朝阳大悦城6楼 85523418,贵州菜 云南菜 十里堡,酸汤鱼 毕节酸菜炒汤圆 菠萝饭,76,7.9,8.3,8.1,902,116.524254,39.929832
小肥羊(军博店) 分店,/shop/2602093,火锅,海淀区复兴路乙12号1楼 63974688,其他火锅 公主坟/万寿路,羊肉 宽粉 冻豆腐,81,7.9,8.1,7.6,901,116.329506,39.91313
黄太吉特色风味卷饼(建外SOHO一... 分店,/shop/6151420,小吃快餐,朝阳区东三环中路39号建外SOHO西区10号楼1楼 58699887,其他小吃 国贸,煎饼 豆腐脑 鸡丝凉面,23,6.8,7.5,7.8,901,116.46224,39.910686
巴国布衣风味酒楼(西直门店) 分店,/shop/507580,川菜,西城区西直门南小街68号北京青年宫1楼 66152230,川菜 婚宴酒店 西直门/动物园,三峡石爆脆肠 川北凉粉 毛血旺,77,7.5,7.2,6.6,898,116.36622,39.94143
青年餐厅(菜市口店) 分店,/shop/512021,北京菜,西城区广安门内大街57号 83172342,家常菜 婚宴酒店 广内大街,宫保鸡丁 青年拌菜 烤鸭,55,7.5,7.3,7.2,896,116.37626,39.89558
护国寺小吃店(阜桥店) 分店,/shop/1944889,小吃快餐,西城区阜成门内大街349号 66162446,老北京小吃 阜成门,豌豆黄 奶油炸糕 面茶,16,8,6.8,6.7,894,116.364,39.92966
小肥羊(回龙观店) 分店,/shop/2427904,火锅,昌平区回龙观西大街18号港龙商业中心东侧3楼302室 81728896,其他火锅 回龙观,羊肉 肥牛 宽粉,69,8.2,8,7.8,893,116.33884,40.084396
双福食街(和平里店),/shop/510835,东北菜,东城区和平里西街和平里五区9号楼 84222388,东北菜 和平里 安贞,马蹄烧饼 锅包肉 烟熏脊骨,53,7.6,7.3,6.7,892,116.42567,39.96033
川成元麻辣香锅(建外店) 分店,/shop/2283010,川菜,朝阳区东三环中路39号建外SOHO A座106室 58699986,香锅 国贸,青笋 豆皮 午餐肉,70,8,7.9,7.7,890,116.46735,39.911846
鸭王烤鸭店(建国门店) 分店,/shop/507539,北京菜,朝阳区建国门外大街24号 65156908,烤鸭 婚宴酒店 国贸,烤鸭 一鸭三吃 盐水鸭肝,124,7.7,6.7,6.5,886,116.44593,39.91377
西贝西北菜(定慧桥店) 分店,/shop/2055613,西北菜,海淀区永定路4号金沙国际商务会馆1-2楼 88624798,西北菜 婚宴酒店 五棵松,功夫鱼 莜面 酸奶,83,9.1,8.8,9,886,116.277885,39.930992
望湘楼,/shop/1922224,火锅,朝阳区建国门外大街永安西里9号 51391798,湘菜 火锅 国贸 建外大街,剁椒鱼头 小炒肉 小炒鸡腿肉,51,8.5,8.2,8.4,885,116.453125,39.912857
钱柜KTV自助餐(惠新店) 分店,/shop/2290552,自助餐,朝阳区惠新东街4号 88576566,自助餐 对外经贸,麻辣烫 卤肉饭 寿司,77,6.6,8.1,7.5,884,116.43085,39.99339
杨记专业麻辣烫,/shop/2214241,小吃快餐,朝阳区武圣东里48号楼 ,麻辣烫 劲松/潘家园,金针菇 宽粉 鱼豆腐,28,8.6,7.8,7.5,883,116.474625,39.884445
松本楼日式烧肉(国瑞店) 分店,/shop/5187402,日本,东城区崇文门外大街18号国瑞购物中心3楼 67165033,日式烧烤/铁板烧 日式自助 崇文门,三文鱼 烤虾 牛舌,225,8.1,8.6,8.1,883,116.42557,39.90464
蜀国演义酒楼(黄寺旗舰店) 分店,/shop/580117,川菜,西城区黄寺大街23号北广福丽特大厦5楼 82231999,川菜 婚宴酒店 德外大街 安贞,水煮鱼 毛血旺 盆盆菜,86,8.8,8.9,8.8,881,116.392685,39.969395
龙人居酒楼(二七剧场路店) 分店,/shop/513311,川菜,西城区二七剧场路南口甲19号楼 68023476,川菜 婚宴酒店 复兴门,水煮鱼 香辣猪蹄 呛炒圆白菜,71,9,6.8,7.6,881,116.35262,39.913918
管氏翅吧(地安门店) 分店,/shop/1962331,小吃快餐,西城区地安门西大街20号 64056957,烧烤 地安门,烤鸡翅 秘制烤翅 烤馒头片,47,8.6,6.1,6.6,881,116.399345,39.939556
老家肉饼 分店,/shop/511966,小吃快餐,多家连锁店 ,快餐/简餐,老家肉饼 肉饼 紫米粥,13,6.2,5.1,5,880,116.454704,39.961258
太婆天府山珍酒楼(复兴门店) 分店,/shop/507911,火锅,西城区二七剧场路南口甲19号楼 68019641,其他火锅 复兴门,乌鸡锅 各种蘑菇 竹荪,76,9.1,7.5,8,879,116.352844,39.913006
北容酒楼(劲松路店) 分店,/shop/509926,北京菜,朝阳区劲松路1号 67741776,家常菜 婚宴酒店 劲松/潘家园,烤鸭 宫爆鸡丁 焦熘丸子,59,7.8,6.7,6.8,879,116.45796,39.890457
丝路印象新疆餐厅(和平里店) 分店,/shop/4294133,新疆菜,东城区和平里中街17号天元和平商业大厦1楼 84228548,新疆菜 和平里,酸奶 羊肉串 大盘鸡,60,8.6,8.8,8.7,878,116.42655,39.963654
一碗居老北京炸酱面(蒲芳路店) 分店,/shop/508972,小吃快餐,丰台区方庄蒲方路24-1号 67654321,炸酱面 方庄,炸酱面 灌肠 麻豆腐,49,7.7,7.3,7.2,877,116.436,39.87153
贾三灌汤包子馆,/shop/509457,小吃快餐,西城区白云观街甲1号楼底商 63311455,包子 复兴门,灌汤包子 羊肉泡馍 牛肉灌汤包,38,7.7,6.7,6.8,871,116.35331,39.905186
老五四季涮肉(白纸坊店) 分店,/shop/510479,火锅,西城区白纸坊东街17号 63516164,涮羊肉 右安门,羊肉 小料 糖蒜,65,8.3,6.3,6.6,870,116.37775,39.884632
口福居火锅(霄云路店) 分店,/shop/2052529,火锅,朝阳区霄云路25号 64663088,涮羊肉 婚宴酒店 亮马桥/三元桥,口福居麻酱烧饼 精品羊肉 肥牛,81,7.9,7.9,7.8,870,116.46952,39.963146
俏江南(金融街店) 分店,/shop/511611,川菜,西城区金融大街甲26号顺成饭店1楼 66228989,川菜 婚宴酒店 复兴门,江石滚肥牛 麻酱油麦菜 水煮鱼,156,7.8,8.4,8.2,869,116.366936,39.91814
雅玛花式铁板烧餐厅(亚运村店) 分店,/shop/2431825,日本 自助餐,朝阳区北四环东路安慧里四区15号楼五矿大厦1楼 64963666,自助餐 日式烧烤/铁板烧 亚运村,火焰牛排 蒜茸开边虾 烤生蚝,189,8,7.5,8,866,116.41917,39.995316
江边城外烤全鱼(马家堡店) 分店,/shop/5302766,川菜,丰台区马家堡西路11号 67526412,烤鱼 草桥,香辣烤鱼 豆豉烤鱼 清江鱼,64,9.1,9,9,865,116.376175,39.85247
王家渡火锅店(亚运村店) 分店,/shop/516393,火锅,朝阳区北辰东路慧忠北里413号楼 64846277,其他火锅 亚运村,番茄锅底 虾滑 嫩牛肉,110,9,8.7,8.7,863,116.40723,40.010868
石器时代串吧(双井店) 分店,/shop/2273959,小吃快餐,朝阳区东三环南路42号 67762755,烧烤 双井,鸡翅 羊肉串 骨肉相连,68,7.9,7.9,7.7,863,116.468544,39.897533
俏江南(融科中心店) 分店,/shop/509201,川菜,海淀区科学院南路2号融科资讯中心A座1楼 82861698,川菜 婚宴酒店 中关村,江石滚肥牛 麻酱油麦菜 石烹豆花,142,8,8.6,8.5,863,116.331856,39.990067
和合谷(汉光百货店) 分店,/shop/512967,小吃快餐,西城区西单北大街178号汉光百货B1楼 66024234,快餐/简餐 西单,鸡肉饭 牛肉饭 双拼饭,25,7.4,7.2,7.3,863,116.3816,39.91542
田源鸡火锅(劲松桥店) 分店,/shop/2291098,火锅,朝阳区南磨房路37号华腾北塘商务大厦2楼201室 51908955,其他火锅 劲松/潘家园 大望路,田源鸡 田源鸡汤 各种蘑菇,72,8.6,7.8,8.4,862,116.47424,39.890293
大碗居(北京商界店) 分店,/shop/3276583,北京菜,东城区东兴隆街56号北京商界2楼西侧 67011848,家常菜 崇文门,鱼头泡饼 蓝莓山药 宫保鸡丁,60,8.6,8.2,8.3,860,-99.730804,39.903244
叙香斋素食,/shop/513017,素菜,东城区国子监大街甲26-1号 64046568,素菜 安定门,苜蓿芽手卷 羊肉串 甜点,69,7.9,8.1,8.1,857,116.42146,39.951565
林之雨铁板烧料理(万柳店) 分店,/shop/2900674,日本,海淀区万柳中路102号万柳商街3楼 82869898,日式烧烤/铁板烧 苏州桥,三文鱼 扇贝 刺身,162,8.3,8.3,8.6,856,116.304245,39.97072
坪亭铁板烧(亚运村店) 分店,/shop/572480,日本,朝阳区亚运村慧忠北路雅园5号楼3楼 64969392,日式烧烤/铁板烧 日式自助 亚运村,黑虎虾 银鳕鱼 火焰菲力牛排,176,8.3,8,8.3,854,116.417336,40.00499
山城辣妹子重庆火锅(方庄一店) 分店,/shop/513340,火锅,丰台区芳古路芳群园二区28号楼 67638234,重庆火锅 方庄,麻团 小烧饼 泡椒凤爪,73,8.5,7.9,8,850,116.43773,39.867496
隐泉日本料理(三里屯店) 分店,/shop/2745640,日本,朝阳区三里屯路19号三里屯太古里南区8号楼S8-30号 64153939,日本料理 三里屯,摩托罗拉卷 隐泉沙拉 蝴蝶卷,195,8.8,9.1,8.7,848,116.46014,39.940224
便宜坊烤鸭店(朝阳大悦城店) 分店,/shop/4062931,北京菜,朝阳区朝阳北路101号朝阳大悦城7楼08号 85914058,烤鸭 十里堡,烤鸭 芥末鸭掌 松茸粉丝娃娃菜,108,8.3,8.6,8.2,847,116.5247,39.929825
陈阿婆鱼火锅(永定路店) 分店,/shop/584518,火锅,海淀区永定路28号 68187172,鱼火锅 五棵松,梭边鱼 虾滑 鸭血,57,8.7,8.3,8.4,845,116.271255,39.92643
咖啡茶自助餐厅,/shop/507618,自助餐,海淀区紫竹院路29号北京香格里拉饭店景阁1楼 68412211-6715,自助餐 紫竹桥,龙虾 甜品 三文鱼,428,8.3,9,8.6,842,116.31503,39.950127
东来顺饭庄(大栅栏店) 分店,/shop/3546289,火锅,西城区大栅栏7号吉龙老栅栏商城2楼 63165836,涮羊肉 前门,涮羊肉 羊上脑 肥牛,82,8.6,8.6,8.3,842,116.403854,39.90249
金百万烤鸭店(顺义店) 分店,/shop/510723,北京菜,顺义区顺义区府前西街10号 51160000,烤鸭 婚宴酒店,烤鸭 水煮鱼 宫保鸡丁,63,8.2,8.2,8,840,116.65451,40.135983
洪湖传扬餐厅,/shop/1965808,湖北菜,朝阳区西大望路3号蓝堡国际公寓南区2楼 85997313,湘菜 湖北菜 大望路,干锅千叶豆腐 洪湖紫江奇味鱼 干锅牛蛙,49,8.2,7.9,8,840,116.48317,39.91726
海底捞火锅(翠微路店) 分店,/shop/3539215,火锅,海淀区翠微路12号凯德MALL购物中心4楼 68218532,其他火锅 公主坟/万寿路,虾滑 滑牛肉 鸭血,90,9.2,9,9.4,840,116.30935,39.91842
海碗居(松榆里店) 分店,/shop/510666,小吃快餐,朝阳区松榆南路36号 87313518,炸酱面 劲松/潘家园,炸酱面 灌肠 爆肚,49,8.1,7.6,8,835,116.48179,39.876736
西贝西北菜(亦庄店) 分店,/shop/1962835,西北菜,大兴区旧宫镇旧宫二村三台山路16号 87609698,西北菜 婚宴酒店 旧宫 亦庄,羊肉串 功夫鱼 酸奶,83,8.4,8.5,8.5,834,116.478836,39.81497
汉丽轩烤肉超市(三元桥店) 分店,/shop/3130960,自助餐,朝阳区曙光西里甲10号楼苏宁电器3楼 64668399,自助餐 韩国料理 亮马桥/三元桥,培根 五花肉 水果,46,6.9,6.3,6.8,832,116.45505,39.96803
九头鸟酒家(航天桥店) 分店,/shop/510418,湖北菜,海淀区西三环中路航天西招院内1楼 68489278,湖北菜 婚宴酒店 航天桥,莲藕排骨 黄豆猪手 清蒸武昌鱼,59,7.5,6.8,6.8,830,116.31619,39.928776
松本楼日式烧肉(中关村店) 分店,/shop/2761243,日本,海淀区北四环西路甲2号辽宁大厦1楼 84648558,日式烧烤/铁板烧 日式自助 中关村,上等牛舌 特选上等牛小排 三文鱼刺身,215,8.5,8.7,8.3,828,116.3439,39.99054
兄弟川菜(簋街旗舰店) 分店,/shop/4562848,小吃快餐 川菜,东城区东直门内大街199-201号 64013636,川菜 烧烤 东直门,泉水牛蛙 毛血旺 水煮鱼,77,9,8.6,8.6,827,116.43082,39.946934
红太阳美食生态园(来广营店) 分店,/shop/509204,北京菜,朝阳区来广营新北路9号 84916222-2588,农家菜 婚宴酒店 望京,蜂窝玉米 大丰收 烤鲈鱼,77,6.6,8.4,7.2,826,116.45478,40.03144
德川家日本料理(中关村店) 分店,/shop/508336,日本,海淀区中关村南大街甲12号寰太大厦2楼 62109096,日式自助 魏公村,烤鳗鱼 三文鱼 北极贝,159,7.3,7.8,7.1,825,116.330185,39.964977
香草香草云南原生态火锅(宇飞店) 分店,/shop/6427802,火锅,东城区东直门外大街42号宇飞大厦2楼 64178988,其他火锅 婚宴酒店 东直门,鲜花虾滑 手切蝴蝶泉乳羊肉 菌王奇香锅,93,9.2,9,9.1,824,116.44412,39.94668
九头鹰酒家(地坛店) 分店,/shop/507980,湖北菜,东城区安定门外大街71号 84114888,湖北菜 婚宴酒店 安定门,珍珠圆子 热干面 莲藕排骨,48,8.1,7.7,7.9,822,116.41406,39.96376
猫眼餐厅(志新店) 分店,/shop/512835,西餐,海淀区二里庄南口志新路3号 82376150,比萨 五道口,金枪鱼沙拉 PIZZA 超级至尊,44,7.2,7,6.6,821,116.375916,40.000103
苗乡楼(金源店) 分店,/shop/513012,贵州菜,海淀区远大路1号金源新燕莎MALL5楼5-19号 88872994,贵州菜 远大路,酸汤鱼 米豆腐 厥根粉,96,7,7.7,7.2,819,116.29804,39.96506
渝信川菜(京泰店) 分店,/shop/508382,川菜,朝阳区建国门外大街24号京泰大厦1楼 65156588,川菜 建外大街,水煮鱼 毛血旺 川北凉粉,80,8.5,8.2,8,818,116.4465,39.912952
王家渡火锅店(棕榈泉店) 分店,/shop/2893654,火锅,朝阳区朝阳公园南路8号棕榈泉生活广场3楼 65398098,其他火锅 朝阳公园/团结湖,番茄锅底 虾滑 嫩牛肉,113,8.4,8.9,8.7,816,116.48521,39.938274
蓝钻国际美食自助百汇(石景山店) 分店,/shop/5239639,自助餐,石景山区鲁谷路74号瑞达大厦3楼 68607555,自助餐 婚宴酒店 鲁谷,生鱼片 菲力牛排 冰激凌,163,8.8,9,9.1,816,116.25169,39.90888
四川孙鲶鱼(北土城店) 分店,/shop/508739,川菜,海淀区北土城西路牡丹园小区对面 62386604,川菜 婚宴酒店 北太平庄,麻辣鲶鱼 家常鲶鱼 炝炒圆白菜,83,8.2,6.2,6.4,815,116.38432,39.98262
芝麻花(健德桥店) 分店,/shop/512076,北京菜,海淀区健德桥北祁家豁子小区百安居南侧胡同内 62007022,家常菜 北太平庄,贵州嫩鸡 雀皮肘子 罐焖羊肉,48,8.4,6.4,7.4,814,116.39293,39.98301
呀咪咖喱屋(中关村店) 分店,/shop/3264178,西餐,海淀区中关村大街15号家乐福B2楼 51721776,西式简餐 中关村,黄咖喱 红咖喱 猪排饭,31,7.2,8,7,814,116.322685,39.986443
红莲烤鸭店(红莲北里店) 分店,/shop/510524,北京菜,西城区广安门外红莲北里甲11号 63263335,烤鸭 广外大街,烤鸭 精品烤鸭 宫保鸡丁,56,7.9,6.9,6.7,814,116.34071,39.890854
日进,/shop/4665606,小吃快餐 川菜,朝阳区工体北路8号院三里屯SOHO 3号商场3楼315室 56149966,烧烤 川菜 三里屯,烤鱼 芒果绵绵冰 烤鸡翅,94,8.8,8.8,9,813,116.46014,39.93811
齐海鱼圣,/shop/3712981,火锅,朝阳区四惠桥东通惠河畔南岸环岛处 87706767,其他火锅 大望路,石斑鱼丸 石斑鱼汤 葱油饼,76,9,9,9.1,813,116.49595,39.914257
大贵,/shop/515448,贵州菜,东城区交道口大兴胡同69号 64071800,贵州菜 婚宴酒店 东四,蜂窝煤 酸汤鱼 炒汤圆,88,7.2,7.3,7.4,813,116.41667,39.944138
南门涮肉(河边店) 分店,/shop/2001757,火锅,东城区安定门外东河沿乙9号楼 84242533,涮羊肉 安定门,鲜羊肉 小料 糖蒜,74,8.9,7.9,8.2,812,116.41811,39.95662
青年餐厅(六里桥店) 分店,/shop/561447,北京菜,丰台区华源1街4号楼 63334099,家常菜 婚宴酒店 六里桥/丽泽桥,烤鸭 青年拌菜 毛血旺,65,7.8,8.4,7.9,809,116.32292,39.888123
花家怡园(世茂大厦店) 分店,/shop/2655271,北京菜,朝阳区建国路甲92号世茂大厦3楼 51283329,家常菜 婚宴酒店 国贸,霸王鸡 花家白菜 烤鸭,120,8.5,9,8.8,809,116.477844,39.91334
没名儿生煎(小西天店) 分店,/shop/5257179,小吃快餐,西城区小西天文慧园路3号 4008965880,其他小吃 新街口,生煎 灌汤包 生煎包,19,8.2,8.1,8.1,808,116.37692,39.95891
东北虎风味食街(三元桥店),/shop/509825,东北菜,朝阳区东三环南小街6号楼 64685258,东北菜 婚宴酒店 亮马桥/三元桥,东北大拉皮 锅包肉 酸菜汆白肉,48,8,6.7,6.8,808,116.464455,39.960613
扇子餐厅,/shop/4660143,海鲜,朝阳区神路街39号楼日坛上街1-20号 85628350,创意菜 海鲜 朝外大街,芝士h龙虾 金枪鱼沙拉 醉鸡,139,8,8.7,8.6,806,116.45045,39.924442
真功夫(新世界店) 分店,/shop/1971490,小吃快餐,东城区崇文门外大街新世界商场1楼 67092413,快餐/简餐 崇文门,乌鸡汤 香菇鸡腿饭 花旗参竹丝鸡汤,26,7.2,7,7,805,116.42452,39.904198
新沸腾鱼乡(世贸天阶店) 分店,/shop/2672002,川菜,朝阳区光华路9号世贸天阶北街4楼西侧 65895588,川菜 建外大街,水煮鱼 馋嘴蛙 毛血旺,148,8.1,8.9,8,804,116.457664,39.922493
老冯烤羊蝎子馆(鼓楼西大街店) 分店,/shop/5522111,火锅,西城区鼓楼西大街206号 13717785323,羊蝎子 什刹海 地安门,烤羊蝎子 红柳烤肉 烤鸡翅,70,9.1,6.8,7.4,801,116.38731,39.95402
金百万烤鸭店(万柳店) 分店,/shop/2770243,北京菜,海淀区万泉河路小南庄400号龙都宾馆院内 62527588,烤鸭 家常菜 苏州桥,烤鸭 狮子头 宫保鸡丁,62,8.5,8.5,8.5,801,116.30978,39.971653
新辣道鱼火锅(欧美汇店) 分店,/shop/3570217,火锅,海淀区中关村丹棱街甲1号欧美汇购物中心F5-02 82484493,鱼火锅 中关村,梭边鱼 徐妈豆腐 土贡梅煎,84,8.6,8.4,8,799,116.32168,39.985226
木屋烧烤(台湾街店) 分店,/shop/5328185,小吃快餐,石景山区鲁谷路雕塑公园南门台湾街宝岛夜市 68647507,烧烤 鲁谷,烤扇贝 烤生蚝 羊肉串,64,8.7,8.5,8.3,799,116.25736,39.910023
乐蛙蛙(中关村店) 分店,/shop/4170897,川菜,海淀区通惠寺3号巴比伦酒店3楼 62555757,川菜 中关村,金牌稻香蛙 馋嘴蛙 烤蛙,69,8.6,8.3,8.3,799,116.31794,39.98229
聚点串吧(东直门店) 分店,/shop/3296761,小吃快餐,东城区东直门内大街5-3号 63035678,烧烤 东直门,烤串 鸡脆骨 大拌菜,62,8.5,8.3,8.2,798,116.4369,39.947292
老万记麻辣烫(国展老店) 分店,/shop/1970962,小吃快餐,朝阳区西坝河东里三元大厦北边300米 84510330,麻辣烫 左家庄,麻辣烫 酸辣粉 烤馒头片,36,8.3,6.3,6.4,797,116.45387,39.971546
三角猫比萨(77街店) 分店,/shop/2020993,西餐,西城区西单77街地下美食街B1楼 66039156,比萨 西单,至尊 金枪鱼沙拉 新奥尔良烤翅,42,6,6.6,6.3,794,116.37929,39.916798
金波亭章鱼烧,/shop/3126838,小吃快餐,东城区南锣鼓巷90号 15801207597,其他小吃 安定门,章鱼烧 鲷鱼烧 热狗,19,8.4,7.8,8.1,792,116.409645,39.942783
正宗潮州牛肉丸火锅,/shop/508513,火锅,朝阳区农展馆南里11号 59191567,其他火锅 亮马桥/三元桥,牛肉丸 炸腐竹 沙茶酱,67,8.1,6.6,6.7,791,116.47031,39.939735
眉州东坡酒楼(中日店) 分店,/shop/510771,川菜,朝阳区樱花东街甲4号 64208188,川菜 婚宴酒店 对外经贸,东坡肘子 眉州香肠 东坡肉,61,8.1,7.3,7.6,791,116.43176,39.978615
旺顺阁鱼头泡饼店(魏公村店) 分店,/shop/4115715,北京菜,海淀区中关村南大街甲18号北京国际大厦A座1楼 52711502,家常菜 粤菜 魏公村,鱼头泡饼 蓝莓山药 酸奶,103,8.6,8.7,8.3,790,116.33096,39.959213
俏江南(国贸中心店) 分店,/shop/508232,川菜,朝阳区建国门外大街1号国贸大厦西楼2楼L220号 65050809,川菜 婚宴酒店 国贸 建外大街,江石滚肥牛 麻酱油麦菜 水煮鱼,162,7.9,8.5,8.3,788,116.46482,39.91807
辣尚瘾(航天桥店) 分店,/shop/5237709,川菜,海淀区阜成路23号 68988511,烤鱼 香锅 航天桥,麻辣香锅 香辣烤鱼 蓝莓山药,54,9,8.7,8.8,786,116.32296,39.930412
川成元麻辣香锅(富力广场店) 分店,/shop/2535682,川菜,朝阳区东三环中路65号富力广场南区3楼323号 59037388,香锅 双井,青笋 午餐肉 金针菇,74,8.5,8.2,8,783,116.46757,39.90093
羲和雅苑烤鸭坊(燕莎桥店) 分店,/shop/3430600,北京菜,朝阳区新源南路1号都汇天地商场3楼302号 59761355,烤鸭 婚宴酒店 亮马桥/三元桥,烤鸭 张氏狮子头 井冈山豆皮,119,9.2,9.3,9.1,782,116.467575,39.95615
品诺意大利餐厅(中关村店) 分店,/shop/585142,西餐,海淀区北四环西路52号方正大厦1楼 51722902,意大利菜 中关村,肉酱多利亚饭 罗马风味烤鸡腿 PIZZA,40,6.7,7.1,6.5,782,116.322815,39.997692
渝信川菜(工体店) 分店,/shop/508386,川菜,朝阳区春秀路幸福一村西里甲5号 64158168,川菜 三里屯,水煮鱼 毛血旺 馋嘴蛙,77,8.4,8.3,8,781,116.4523,39.9421
辣婆婆(航天桥店) 分店,/shop/511682,川菜,海淀区恩济里18号 88115143,川菜 婚宴酒店 航天桥,水煮鱼 香辣蟹 香辣虾,93,8.2,8.2,7.8,777,116.29422,39.933033
燕莎巫山烤全鱼 分店,/shop/2002519,火锅,朝阳区东三环燕莎桥向东安家楼口内 64615726,重庆火锅 亮马桥/三元桥,香辣烤鱼 豆豉烤鱼 蕨根粉,62,8,6.9,6.5,776,116.470505,39.958675
羊大爷涮肉坊(西苑店) 分店,/shop/512487,火锅,海淀区万泉河路12号 62653878,涮羊肉 颐和园,涮羊肉 大白菜 羊肉,60,7.8,6.8,6.7,774,116.30222,40.001617
王老头炒货(玉蜓桥店) 分店,/shop/559728,小吃快餐,东城区天坛东路77号 67022924,零食 食品茶酒 天坛,糖炒栗子 瓜子 开心果,25,8.9,6.7,7.4,774,116.42729,39.880474
花家怡园(国展店) 分店,/shop/508533,北京菜,朝阳区静安里党校路3号 51283319,家常菜 婚宴酒店 左家庄,霸王鸡 花家白菜 烤鸭,97,8.1,8.4,8.3,774,116.4536,39.964546
鼓楼麻辣香锅(东大街店) 分店,/shop/2039869,川菜,西城区鼓楼东大街220号 13121398956,香锅 地安门 什刹海,麻辣香锅 青笋 金针菇,63,7.9,6.5,6.9,772,116.405205,39.946957
比格比萨(阜成门阳光店) 分店,/shop/2003104,自助餐,西城区阜成门外大街丙3号东润时代大厦2楼 68006478,比萨 自助餐 阜成门,鸡翅 比萨 鸡肉串,54,6.8,7.1,6.7,771,116.359726,39.929905
香妃烤鸡(缸瓦市店) 分店,/shop/511634,小吃快餐,西城区西单北大街31号 66510659,快餐/简餐 西单,烤鸡 泡菜 烧饼,23,8.5,7.6,7.3,768,116.37999,39.923496
西贝西北菜(金源店) 分店,/shop/5378853,西北菜,海淀区远大路1号金源时代购物中心651号商铺 88866838,西北菜 婚宴酒店 远大路,自制酸奶 功夫鱼 面筋,83,9.3,9.1,9.3,765,116.2945,39.965466
力力豆花庄,/shop/508809,川菜,东城区广渠门外大街27号 67718392,川菜 广渠门,宫保鸡丁 豆花 招牌白菜,67,8.4,7.6,7.8,764,116.45658,39.89973
康师傅私房牛肉面(真武庙店) 分店,/shop/2043571,小吃快餐,西城区真武庙头条1号 68012545,粉面馆 复兴门,牛肉面 私房养生牛肉面 牛三宝面,37,7.6,7.9,7.8,761,116.358826,39.912533
大渔铁板烧(万柳中路店) 分店,/shop/562020,日本,海淀区万柳中路15号 82566044,日式烧烤/铁板烧 日式自助 苏州桥,鳕鱼 扇贝 北极贝,186,8,7.6,7.7,761,116.30346,39.9727
汉堡王(悠唐店) 分店,/shop/4120511,西餐,朝阳区三丰北里2号楼悠唐生活广场1-2楼F2-049号铺 85628977,西式简餐 朝外大街,皇堡 薯条 培根芝士皇堡,30,9,8.8,8.9,760,116.44677,39.928024
白魁老号饭庄(隆福广场总店) 分店,/shop/508583,小吃快餐,东城区隆福广场前街1号 84012373,老北京小吃 清真菜 东四,奶油炸糕 烧羊肉 杂碎汤,36,7.4,6.2,5.7,760,116.42088,39.931442
翼栈餐吧,/shop/2373556,川菜,东城区北新桥头条30号 64010979,川菜 婚宴酒店 东直门,江湖一锅鱼 酸奶酒 动感双菇,87,7.4,8.2,7.5,759,116.426605,39.947647
素虎净素餐厅,/shop/2950909,素菜,海淀区双清路88号华源世纪商务楼2楼 82527078,素菜 五道口,蓝莓山药 酱爆田螺 浓汤全菌锅,61,8.7,8.8,8.9,758,116.34158,40.00194
没名儿生煎(北大店) 分店,/shop/5247578,小吃快餐,海淀区颐和园路8号畅春园美食街A15号 4008965880,其他小吃 中关村,生煎包 小笼汤包 uz鳇I,18,8.6,8,8.3,755,116.3104,40.000042
贵州酸汤鱼(魏公村店) (暂停营业),/shop/2372623,火锅 贵州菜,海淀区中关村南大街11号百花商业A座 88510316,其他火锅 贵州菜 魏公村,酸汤鱼 乌江鱼 米豆腐,54,5.2,4.3,5.4,755,116.32957,39.962288
比格比萨(搜秀店) 分店,/shop/2257885,自助餐,东城区崇文门外大街40号搜秀商城2楼 51671181,比萨 自助餐 崇文门,鸡翅 PIZZA 黄桃,52,6.7,7.1,6.9,755,116.42751,39.900867
四川饭店,/shop/4226589,川菜,西城区新街口北大街3号楼星街坊购物中心1楼 83225559,川菜 新街口,宫保鸡丁 麻婆豆腐 烤鸭,104,8.3,8.9,8.5,750,116.378296,39.951805
卤煮店,/shop/513454,小吃快餐,东城区东四北大街442号 64043686,老北京小吃 东四,卤煮火烧 卤煮 灌肠,20,8,6.1,6.2,750,116.42396,39.933365
锅色天香(西直门店) 分店,/shop/2037226,火锅,西城区西直门外大街6号中仪大厦 88316198,其他火锅 西直门/动物园,虾滑 牛羊拼盘 蔬菜拼盘,82,8.1,8.6,8.4,749,116.35957,39.945385
阿凡提 (暂停营业),/shop/507551,新疆菜,东城区朝阳门内大街188号后拐棒胡同甲2号 65272288,婚宴酒店 新疆菜 朝阳门,特色:羊肉串??大盘鸡??柠檬牛肉,134,7.4,8.1,7.5,749,116.431435,39.92956
眉州东坡酒楼(亦庄店) 分店,/shop/3276043,川菜,大兴区亦庄经济开发区宏达北路18号大地商务楼1楼 59683399,川菜 婚宴酒店 亦庄,东坡肘子 东坡肉 担担面,76,8.6,8.6,8.2,746,116.51756,39.803776
早春二月(建外SOHO店) 分店,/shop/2602468,川菜,朝阳区东三环中路39号建外SOHO东区8号楼3楼 59003541,川菜 婚宴酒店 国贸,村童烤兔腿 毛血旺 两江麻辣鱼,80,8.1,8.1,7.9,745,116.46769,39.912045
印巷小馆(亚运村店) 分店,/shop/5861540,北京菜,朝阳区安慧里四区15号楼1楼 64953838,家常菜 亚运村,金包咖喱鸡 甜汁爆鲜虾 印巷红盖,70,8.6,8.7,8.4,745,116.42038,39.995785
那家小馆(鲁谷南路店) 分店,/shop/5963563,北京菜,石景山区鲁谷南路 52400255,官府菜 婚宴酒店 鲁谷,秘制酥皮虾 世宁土豆泥 皇坛子,110,9.1,9.4,9.3,744,116.225876,39.906284
福口居(北太平庄店) 分店,/shop/508491,火锅,海淀区北太平庄北三环中路40号 62382412,其他火锅 北太平庄,酸梅汤 羊肉 特价羊肉,54,7.3,6.8,7.1,744,116.37012,39.973225
丁丁洋回转自助火锅(中关村店) 分店,/shop/3478465,火锅,海淀区中关村大街15号中关村广场购物中心步行街西区C209号 59863502,其他火锅 中关村,撒尿牛丸 水果 包心鱼丸,34,6.4,6.4,6.1,744,116.3229,39.985703
金百万烤鸭店(万城店) 分店,/shop/510691,北京菜,海淀区金沟河路19号 68165665,烤鸭 婚宴酒店 五棵松,烤鸭 水煮鱼 狮子头,62,8.3,8.3,8.2,743,116.2675,39.924202
管氏翅吧(国展店) 分店,/shop/2038783,小吃快餐,朝阳区北三环东路8号静安中心1楼东侧 84542057,烧烤 左家庄,烤鸡翅 烤馒头 疙瘩汤,50,8.2,6.2,6.4,743,104.25478,39.96607
渝乡美食苑麻辣烫,/shop/2320078,小吃快餐,朝阳区东三环南路垂杨柳北里39号楼底商 ,麻辣烫 双井,麻辣烫 酸辣粉 凉面,26,8.7,7.5,7.3,741,116.46756,39.895782
西安东关吉祥腊汁肉店(北土城路... 分店,/shop/1929079,小吃快餐 西北菜,海淀区北土城西路103号 ,西北菜 其他小吃 北太平庄,肉夹馍 油泼面 臊子面,25,8.3,6.7,6.5,740,116.387085,39.983303
木屋烧烤(武圣路店) 分店,/shop/8852398,小吃快餐,朝阳区武圣路农光里206号楼1楼 87376867,烧烤 劲松/潘家园,扇贝 生蚝 羊蹄,62,8.3,8.3,8.5,740,116.47425,39.885937
友仁居北京涮羊肉(知春路店),/shop/509771,火锅,海淀区知春路56号 82112648,涮羊肉 双榆树 中关村,涮羊肉 肥牛 羊肉,71,7.4,6.5,6.5,739,116.34238,39.981773
阳光海岸自助百汇(金宝店) 分店,/shop/3002914,自助餐,东城区朝阳门南小街269号金宝净雅大酒店7楼 65277666,自助餐 婚宴酒店 朝阳门,哈根达斯 酥皮蘑菇汤 三文鱼,178,7.9,7.9,8.4,737,116.43284,39.922714
伊宝荷叶甑糕(清真店) 分店,/shop/2028406,小吃快餐,西城区牛街5号牛街清真超市1楼 ,其他小吃 牛街,荷叶甑糕 芸豆糕 甑糕,13,8.5,7.3,8,736,116.36984,39.89336
江边城外烤全鱼(慈云寺店) 分店,/shop/5216995,川菜,朝阳区八里庄100号住邦2000商务中心2号楼东配楼2楼216号 85868295,烤鱼 十里堡 大望路,香辣烤鱼 豆豉烤鱼 怪味烤鱼,67,9,8.5,8.6,736,116.50137,39.92111
白魁老号饭庄(交道口店) 分店,/shop/508581,小吃快餐,东城区交道口南大街158号 64060667,老北京小吃 清真菜 东直门,糖火烧 面茶 豌豆黄,27,7.4,6.2,5.8,732,116.41538,39.940006
桥香园过桥米线(双榆树店) 分店,/shop/578991,小吃快餐,海淀区双榆树东里40号 82118081,云南菜 粉面馆 双榆树,过桥米线 米线 藕片,28,7.9,6.6,6.5,731,116.332306,39.974094
第九味道,/shop/4515510,北京菜 川菜,海淀区交通大学路9号 62273685,家常菜 婚宴酒店 北下关 西直门/动物园,香辣美容猪蹄 咸蛋黄h南瓜 瓦罐汤,51,8.4,8.3,8.2,731,116.352135,39.954662
旺顺阁鱼头泡饼店(财富中心店) 分店,/shop/4512919,北京菜,朝阳区东三环中路7号财富购物中心3楼 65330101,家常菜 粤菜 国贸,鱼头泡饼 椒盐茶树菇 蓝莓山药,113,8.9,9.1,8.8,730,116.46633,39.923298
老浒记民俗酒楼(琉璃厂店) 分店,/shop/512641,小吃快餐 北京菜,西城区琉璃厂南新华街58号 63043078,家常菜 炸酱面 虎坊桥,老北京炸酱面 晾杆白肉 烤鸭,50,7.4,6.7,5.5,728,116.391426,39.900593
枣糕王(五道口店) 分店,/shop/2837908,小吃快餐,海淀区成府路 ,零食 五道口,枣糕 门面,10,9,7.3,8,727,116.322464,39.99794
重庆壹圣元火锅(安定门店) 分店,/shop/4211511,火锅,东城区安定门外大街 84138528,重庆火锅 安定门,嫩牛肉 鲜鸭肠 鲜毛肚,88,8.9,7.9,8.1,724,116.41375,39.97442
羊大爷涮肉坊(道家园店) 分店,/shop/1965139,火锅,朝阳区朝阳北路163号道家园19号楼底商 65911797,涮羊肉 大望路,羊肉 传统小料 白菜,65,8.1,7.7,7.2,722,116.49334,39.929203
狗不理包子(前门店) 分店,/shop/512498,小吃快餐,西城区前门大栅栏29-31号 63533338,包子 前门,包子 三鲜包子 猪肉包,58,7,7.4,6.6,722,116.40164,39.90232
洪记小吃店(牛街新店),/shop/2381848,小吃快餐,西城区牛街12号 63550735,老北京小吃 牛街,牛肉粒 驴打滚 炸糕,31,7.6,6,5.9,720,116.37051,39.892765
鑫巴蜀水煮鱼川菜馆(回龙观店) 分店,/shop/2915905,川菜,昌平区回龙观西大街112号 80771956,川菜 婚宴酒店 回龙观,水煮鱼 馋嘴蛙 毛血旺,62,8.2,7.8,7.8,718,116.32763,40.08108
隆门阵,/shop/586937,小吃快餐 川菜,海淀区皂君庙西里甲8号 62153493,烤鱼 烧烤 北下关,麻辣烤鱼 豆豉烤鱼 泡椒烤鱼,64,8.6,6.8,7.1,718,116.3414,39.96497
到家尝(光熙门总店),/shop/507819,小吃快餐 北京菜,朝阳区光熙门北里20号 64221078,家常菜 老北京小吃 左家庄,炸灌肠 炸酱面 麻豆腐,51,7.9,7.8,7.7,718,116.442215,39.970955
猫眼餐厅(紫竹桥店) 分店,/shop/582121,西餐,海淀区北洼路昌运宫15号 68482123,比萨 紫竹桥,金枪鱼沙拉 超级至尊 pizza,47,6.7,6.7,6.3,715,116.31289,39.948185
海丽轩烤肉店(科实店) 分店,/shop/2214151,小吃快餐 自助餐,海淀区信息路甲28号科实大厦2楼 82781161,自助餐 烧烤 上地,烤五花肉 烤培根 烤虾,49,6.7,6.1,6.3,715,116.31817,40.04118
豆捞坊(中关村店) 分店,/shop/5333474,火锅,海淀区中关村大街15号中关村广场步行街 51722761,其他火锅 中关村,虾滑 菌王锅 澳式鲜虾丸,85,8.9,9.2,8.8,715,116.31973,39.98683
一麻一辣麻辣香锅(西直门店) 分店,/shop/2843551,川菜,西城区赵登禹路柳巷 66560003,香锅 西直门/动物园,牛肉丸 鸡翅中 青笋,62,8.3,8.1,8.2,713,116.3739,39.94454
西部马华牛肉面(双安店) 分店,/shop/510938,小吃快餐 西北菜,海淀区双榆树科学院南路44号 82111272,西北菜 粉面馆 双榆树,拉面 羊肉串 大盘鸡,29,7.5,6.8,6.3,713,116.332954,39.973373
木桶三国(现代城店) 分店,/shop/2091193,小吃快餐,朝阳区建国路88号SOHO现代城B座1楼 85803112,快餐/简餐 大望路,木桶饭 烟笋腊肉饭 腐竹牛腩饭,25,6.6,6.9,6.3,712,116.48252,39.913216
川成元麻辣香锅(望京店) 分店,/shop/2024452,川菜,朝阳区广顺北大街33号凯德MALL购物中心B1-15A号 64755385,香锅 望京,青笋 午餐肉 金针菇,65,7.7,7.7,6.5,711,116.475494,39.99871
一麻一辣麻辣香锅(朝北大悦城店) 分店,/shop/4060414,川菜,朝阳区朝阳北路101号朝阳大悦城6楼F15号铺 85520001,香锅 十里堡,青笋 午餐肉 牛肉丸,64,8.5,8.5,8.4,709,116.52751,39.929585
康师傅私房牛肉面(安贞店) 分店,/shop/1939678,小吃快餐,朝阳区安贞西里五区1号阳光乐佰商城1楼 51237669,粉面馆 安贞,牛肉面 茄红慢煨牛肉面 芒果奶酪,39,6.4,6.7,6.5,709,116.40795,39.978493
金簋簋街小山城(春秀路店) 分店,/shop/3036748,火锅,朝阳区东直门外大街27号3楼、5楼 84552729,其他火锅 三里屯 东直门,馋嘴蛙 火锅 牛蛙,88,8.5,7.9,8.1,709,116.45198,39.947235
皇城老妈(德胜店) 分店,/shop/512406,火锅,西城区德胜门教场口街9号院 82068882,其他火锅 婚宴酒店 德外大街,老妈牛肉 毛肚 鹅肠,130,8.5,8.6,8.2,709,116.38631,39.960514
四合院麻辣烫,/shop/2447314,小吃快餐,西城区菜市口大街十字路口南 13811856181,麻辣烫 菜市口,鸡肉串 牛肉串 凉面,54,8.1,5.3,5.9,708,116.3814,39.89401
龙顺园麻辣香锅(望京店) 分店,/shop/513058,川菜,朝阳区望京花园河荫中路东1号 64733452,香锅 望京,青笋 午餐肉 豆皮,65,8,6.1,7.5,708,116.484604,40.013435
李记酱肉爆肚,/shop/2278492,小吃快餐,西城区后海鸦儿胡同19号 84031024,老北京小吃 什刹海,烧饼 羊杂汤 爆肚,30,8.9,6.8,7.8,708,116.39898,39.946026
萨莉亚(崇文门店) 分店,/shop/4089715,西餐,东城区东打磨厂街7号新世界女子百货3楼 67083255,西式简餐 崇文门,意面 金枪鱼沙拉 鸡翅,40,8,8.3,8.3,707,116.419426,39.905678
玫瑰花园自助烤肉(青年路店) 分店,/shop/5703539,自助餐,朝阳区青年路西里3号院10号楼1楼 57117722,自助餐 十里堡,培根 五花肉 烤虾,58,8.6,8.5,8.8,707,116.52112,39.939793
猜火车电影餐厅,/shop/3280771,贵州菜,东城区方家胡同46号c1座 64060658,贵州菜 婚宴酒店 安定门 东直门,酸菜炒汤圆 椒香野生菌 苗王一味骨,86,8.2,9,8.5,707,116.41795,39.95008
新辣道鱼火锅(西单华威店) 分店,/shop/3546265,火锅,西城区西单北大街130号西单华威大厦8楼 66019969,鱼火锅 西单,梭边鱼 虾丸 徐妈豆腐,87,8.4,8.1,7.9,706,116.380714,39.917725
山水间羊羯子火锅(洋桥店) 分店,/shop/511058,火锅,丰台区马家堡东路55号洋桥政洋大厦1-2楼 67538962,羊蝎子 婚宴酒店 洋桥/木樨园,羊蝎子火锅 油豆皮 揪面片儿,70,7.6,7.4,6.4,706,116.39296,39.861862
便宜坊烤鸭店(哈德门店) 分店,/shop/4077040,北京菜,东城区崇文门外大街16号便宜坊大厦4层 67112244,烤鸭 婚宴酒店 崇文门,烤鸭 干烧鸭四宝 芥末鸭掌,125,8.5,8.4,8.1,706,116.42556,39.904984
将太无二(西直门凯德餐厅) 分店,/shop/8074790,日本,西城区西直门外大街1号凯德MALL六层 58302069,日本料理 西直门/动物园,三文鱼 秋天的童话 北极贝,123,8.9,8.8,8.5,705,116.35896,39.947514
胡椒厨房(朝阳大悦城店) 分店,/shop/4105165,西餐,朝阳区朝阳北路101号朝阳大悦城8楼 85528889,西式简餐 十里堡,胡椒牛肉饭 霜降牛排 肋眼牛排,44,8,7.8,8,705,116.52751,39.929585
北平楼(牡丹园店) 分店,/shop/513604,北京菜,海淀区牡丹园西里16号 82082197,家常菜 婚宴酒店 北太平庄,灌肠 烤鸭 爆肚,59,8,7.7,8,705,116.376884,39.98548
京味楼(魏公村店) 分店,/shop/2686921,北京菜,海淀区中关村南大街甲12号寰太大厦1楼 62109388,家常菜 魏公村,烤鸭 爆肚 豌豆黄,78,7.9,8.3,8,702,116.33017,39.965305
汉丽轩烤肉超市(洋桥店) 分店,/shop/2014615,自助餐,丰台区马家堡东路71号立业大厦1楼 51165187,自助餐 韩国料理 洋桥/木樨园,培根 五花肉 牛肉,44,6.4,5.7,6.3,702,116.39276,39.85814
小渔山,/shop/2062852,川菜 海鲜,东城区东直门内大街195号 64019899,川菜 海鲜 东直门,麻辣小龙虾 烤鱼 牛蛙,82,7.9,7.4,7.3,700,116.42823,39.947308
赛百味(双榆树店) 分店,/shop/510924,西餐,海淀区科学院南路44号双榆树华星影剧院1楼西侧 82110489,西式简餐 双榆树,金枪鱼三明治 意大利经典 牛肉丸三明治,25,7.9,7.4,7.3,700,116.332344,39.973724
干锅传奇,/shop/4173891,川菜 贵州菜,石景山区鲁谷路台湾街2号 68647698,川菜 贵州菜 鲁谷,干锅鸡 苗岭酸汤鱼 干锅牛蛙,58,8.5,8.3,8.5,700,116.24466,39.909904
杏园餐厅,/shop/509611,小吃快餐,西城区西四北大街24号 66168417,粉面馆 西四,刀削面 炖肉刀削面 干炸丸子,25,8.3,6.4,6.8,699,116.37972,39.9376
小肥羊(永定路店) 分店,/shop/509662,火锅,海淀区永定路21号院综合楼 68171369,其他火锅 五棵松,滋补鸳鸯锅 羊肉 宽粉,73,8.1,7.8,7.1,699,116.269714,39.92602
乐蛙蛙(远大路店) 分店,/shop/3633811,川菜,海淀区远大路1号金源购物中心5楼 88865613,川菜 远大路,金牌馋嘴蛙 碳烤蛙 干烧蛙,70,8.7,8.2,8.3,698,116.295456,39.966007
赛百味(崇光百货店) 分店,/shop/2363917,西餐,西城区宣武门外大街8号sogo庄胜崇光百货新馆B1楼 63100167,西式简餐 宣武门,金枪鱼三明治 意大利经典 照烧鸡肉三明治,20,9.1,8.4,8.8,696,116.38159,39.902348
便宜坊烤鸭店(金泉美食宫店) 分店,/shop/5213409,北京菜,朝阳区北苑路大屯北路312号金泉美食宫3楼 84855865,烤鸭 婚宴酒店 亚运村,烤鸭 椒盐鸭架 花香烤鸭,91,8.3,8.4,8.3,695,116.41984,40.01252
水木锦堂港式火锅,/shop/2190160,火锅,海淀区五道口清华科技园D座1楼 82151999,其他火锅 婚宴酒店 五道口,海鲜丸三拼 羊肉卷 香菇虾滑,80,7.4,8.6,7.7,694,116.337265,39.998775
火齐潮汕砂锅粥(鼓楼一店) 分店,/shop/5226382,小吃快餐,东城区鼓楼东大街225号 84027556,粥店 地安门,干贝虾蟹粥 咸菜 流沙包,63,9,7.9,8.2,694,116.40592,39.947277
华天峨嵋酒家(牡丹园店) 分店,/shop/4291152,川菜,海淀区花园东路11号泰兴大厦102室 57625266,川菜 婚宴酒店 北太平庄,宫保鸡丁 鸡丝凉面 峨嵋豆腐,71,9,8.5,8.7,694,116.37528,39.986187
金百万烤鸭店(垡头店) 分店,/shop/3338620,北京菜,朝阳区化工路垡头桥商业街9号楼 67389661,烤鸭 婚宴酒店 十八里店,精品烤鸭 烤鸭 水煮鱼,59,8.1,8.3,8.4,692,116.52049,39.874916
东方君悦大酒店长安壹号,/shop/507801,北京菜,东城区东长安街甲1号东方君悦大酒店1楼 65109608,烤鸭 王府井/东单,烤鸭 芝麻菠菜 香煎鸭肝,321,8.5,8.5,8.3,692,116.42094,39.916
板扎板铁板烧,/shop/2972248,小吃快餐,西城区西单北大街甲131号西单大悦城8楼 59716077,烧烤 西单,蛋包饭 牛排 鱿鱼,77,8.4,8.1,8.7,692,116.38,39.9169
海底捞火锅(枫蓝国际店) 分店,/shop/5467662,火锅,西城区西直门北大街32号枫蓝国际购物中心3楼 62269512,其他火锅 西直门/动物园,虾滑 滑牛肉 捞面,92,9.3,9.1,9.5,691,116.36258,39.95895
刘宅食府,/shop/515467,北京菜,东城区美术馆东街蒋家大院胡同8号 64005912,家常菜 东四,茄子肉卷 麻豆腐 灌肠,72,7.4,7.6,7.1,689,116.4166,39.93248
新沸腾鱼乡(朝阳门店) 分店,/shop/4527051,川菜,朝阳区朝阳门外大街19号华普国际大厦3楼 65803368,川菜 朝外大街,水煮鱼 馋嘴蛙 毛血旺,92,9,8.8,8.8,688,116.445045,39.93054
十全舫小吃城,/shop/1973863,海鲜,丰台区石榴庄西街232号京深海鲜市场内 51228516,海鲜 刘家窑,扇贝 螃蟹 皮皮虾,85,7.2,4.5,5.1,688,116.42174,39.847607
辣婆婆(金源店) 分店,/shop/3344563,川菜,海淀区远大路1号金源新燕莎5楼16号 88891336,川菜 远大路,水煮鱼 毛血旺 香辣虾,81,7.9,8.1,7.7,688,116.29419,39.96396
汉斯特自助烤肉(展览馆路店) 分店,/shop/2291398,自助餐,西城区展览馆路3号 68338318,韩国料理 自助餐 阜成门,五花肉 培根 鱿鱼,48,6.9,6.5,6.8,687,116.35021,39.93596
三元梅园(鼓楼西大街店) 分店,/shop/513776,小吃快餐,西城区鼓楼西大街75号 64045361-3015,老北京小吃 什刹海 地安门,双皮奶 原味奶酪 杏仁豆腐,17,8.1,7.2,7.2,686,116.396255,39.949413
烤肉刘 分店,/shop/3234118,小吃快餐,西城区虎坊桥腊竹胡同80号 52464623,烧烤 虎坊桥,烤羊肉 烤牛肉 烤牛舌,69,8.3,5.1,6.4,686,116.39205,39.894238
凤爪传奇,/shop/3676030,小吃快餐,东城区方家胡同46号 64008388,烧烤 安定门 东直门,凤爪 疙瘩汤 鸡翅,47,7.9,7.6,7.6,686,116.417694,39.950188
东方君悦大酒店凯菲厅,/shop/512150,自助餐,东城区东长安街1号东方君悦大酒店2楼 85181234转3628,自助餐 西餐 王府井/东单,甜品 螃蟹 海鲜,286,8.2,8.4,8.5,686,116.42094,39.916
小肥羊(八角南路店) 分店,/shop/510625,火锅,石景山区八角南路 68831912,其他火锅 婚宴酒店 古城/八角,涮羊肉 羔羊肉 宽粉,74,8.1,7.9,7.8,685,116.20597,39.914482
珍巷福地四合院菜馆,/shop/2309977,北京菜,西城区文华胡同51号 66016049,家常菜 西单,乡巴佬茄子 山药排骨汤 小炒黄牛肉,50,8.5,7.9,8.7,684,116.371216,39.910847
渝乡人家(和平里店) 分店,/shop/509498,川菜,东城区和平里东街六区22号 84220807,川菜 和平里 安贞,水煮鱼 川北凉粉 宫保鸡丁,61,8.1,7.9,7.5,684,116.43192,39.955738
新侨三宝乐西餐厅,/shop/510010,自助餐,东城区崇文门西大街1号新侨饭店1楼 65133366-1771,自助餐 其他西餐 崇文门,罐焖牛肉 奶油烤杂拌 h扇贝,106,7.4,7.5,7.2,684,116.42337,39.90766
拿渡麻辣香锅(新光店) 分店,/shop/2420146,川菜,朝阳区建国路87号新光天地B1楼B1043号 ,香锅 大望路,金针菇 青笋 午餐肉,63,8,6.7,6.3,682,116.48489,39.915466
呷哺呷哺(西单大悦城店) 分店,/shop/5140886,火锅,西城区西单北大街131号西单大悦城B2楼 ,其他火锅 西单,麻酱 蔬菜拼盘 肥牛,42,8.9,8.3,8.6,681,116.37943,39.917007
东来顺饭庄(西直门店) 分店,/shop/2002819,火锅,西城区西直门内南大街2号成铭大厦D座3楼 51901730,涮羊肉 婚宴酒店 西直门/动物园,涮羊肉 糖蒜 烧饼,96,7.8,7.8,7.4,681,116.36377,39.945324
独道牛板筋火锅(地安门店) 分店,/shop/4232847,火锅,西城区地安门内大街黄化门街41号 64068422,其他火锅 地安门,牛板筋火锅 泡饼 宽粉,61,8.7,7.7,8.4,680,116.40476,39.936905
李老爹(宣武门店) 分店,/shop/510541,川菜,西城区宣武门外大街8号庄胜崇光SOGO百货对面 63167536,香锅 婚宴酒店 宣武门,香辣蟹 香辣虾 火锅,93,7.7,7.7,7,679,116.38166,39.903564
全聚德烤鸭店(玉泉路店) 分店,/shop/510671,北京菜,海淀区复兴路44号 68276551,烤鸭 婚宴酒店 五棵松,烤鸭 盐水鸭肝 芥末鸭掌,107,7.3,7.2,7,677,116.26083,39.913086
俏江南(盈科中心店) 分店,/shop/508235,川菜,朝阳区工体北路甲2号盈科群楼3层 65393502,川菜 婚宴酒店 三里屯,江石滚肥牛 水煮鱼 麻酱油麦菜,129,8.1,8.8,8.6,677,116.46472,39.93858
汉舍中国菜馆,/shop/3500047,川菜,朝阳区朝阳门外大街甲6号万通中心D座B1楼 59071625,川菜 朝外大街 国贸,黑椒牛仔粒 现制熏鲳鱼 金丝柠香虾球,116,9,9.2,8.9,676,116.46384,39.925453
比格比萨(安贞店) 分店,/shop/2213263,自助餐,朝阳区安华西里甲1号中国木偶剧院2楼西侧 64299116,比萨 自助餐 安贞,鸡翅 比萨 蛋挞,53,7,7.3,7.1,676,-75.3756,39.97428
邢记肉夹馍(北大地商场店) 分店,/shop/1970905,小吃快餐,丰台区西四环南路66-1号北大地商场北路口处 63836889,其他小吃 北大地,肉夹馍 肉加馍 加鸡蛋,5,8.6,6.6,7.7,674,116.28986,39.8633
汉丽轩烤肉超市(学清路店) 分店,/shop/4170719,自助餐,海淀区学清路41号裕京大厦2楼 82837757,自助餐 韩国料理 五道口,培根 五花肉 烤肉,44,6,5.4,5.8,674,116.35859,40.011143
金疆西域食府(北辰东路店),/shop/571590,新疆菜,朝阳区北辰东路四区411号底商 64862555,新疆菜 亚运村,羊肉串 大盘鸡 烤羊腿,96,8.1,8.1,7.7,673,116.40729,40.009335
天津百饺园(方庄店) 分店,/shop/512896,小吃快餐,丰台区南三环东路芳群园四区21号楼 67608999,饺子 方庄,猪肉三鲜 鲅鱼饺子 鲜虾饺,61,8.1,7.7,7.3,671,116.43655,39.864872
萨莉亚(朝阳大悦城店) 分店,/shop/4060387,西餐,朝阳区朝阳北路101号朝阳大悦城8楼6号 85521262,西式简餐 十里堡,金枪鱼沙拉 意面 披萨,39,7.8,7.8,7.8,669,116.52345,39.929817
串盅,/shop/2230156,小吃快餐,西城区旧鼓楼大街大黑虎胡同1号 64028035,烧烤 什刹海 地安门,烤鸡翅 烤培根 土豆泥,54,7.8,6.6,7.2,668,116.4002,39.94891
太熟悉家常菜(右安门店) 分店,/shop/515450,北京菜,丰台区右安门外大街开阳里1区4号楼右外大厦1楼 63572696,家常菜 婚宴酒店 开阳里,水煮鱼 烤鸭 宫爆鸡丁,61,7.3,7.8,7.2,666,116.37118,39.872936
呷哺呷哺(王府井百货大楼店) 分店,/shop/3491896,火锅,东城区王府井大街251-253号王府井百货大楼7楼 ,其他火锅 王府井/东单,麻酱 蔬菜拼盘 豆皮,41,8.2,7.8,8,664,116.41739,39.92014
中央电视塔空中观景旋转餐厅,/shop/2474674,自助餐,海淀区西三环中路11号中央电视塔内 68475552,自助餐 婚宴酒店 航天桥,三文鱼 龙虾 奶油蘑菇汤,257,6.9,8.7,8,663,116.31278,39.925625
赛百味(新世界店) 分店,/shop/514996,西餐,东城区崇文门外大街3-5号新世界百货青春馆B1楼溜冰场旁 67089419,西式简餐 崇文门,金枪鱼三明治 意大利经典 培根三明治,22,8.5,7.9,7.9,663,116.42452,39.904358
郭林家常菜(中关村店) 分店,/shop/1960471,北京菜,海淀区中关村南路甲2号 62622557,家常菜 婚宴酒店 中关村,宫爆鸡丁 烤鸭 鱼香肉丝,52,6.6,6.5,6.3,663,116.329956,39.98656
道乐日本料理(中关村店) 分店 (暂停营业),/shop/2632741,日本,海淀区中关村大街15号中关村广场步行街 51721653,日本料理 日式自助 中关村,三文鱼 烤鳗鱼 北极贝,163,7.3,7.6,6.8,663,116.31973,39.98742
便宜坊(五彩城店) 分店,/shop/5347976,北京菜,海淀区清河中街68号华润五彩城购物中心4楼 82816889,烤鸭 清河 上地,烤鸭 盐水鸭肝 极品毛血旺,100,8.4,8.7,8.3,663,116.33959,40.03634
满朋轩餐厅,/shop/512427,火锅,东城区桃园东里15号 87287342,羊蝎子 天坛,羊蝎子 抻面片 麻豆腐,65,9,7.8,8.2,662,116.41177,39.878033
金山城(双安总店) 分店,/shop/508101,火锅,海淀区北三环西路34号 62168357,其他火锅 双榆树,鸳鸯火锅 羊肉 午餐肉,71,8.1,7.8,7.9,659,116.333984,39.972603
远通维景维多利亚咖啡厅,/shop/2750830,自助餐,西城区平安里西大街30号楼远通维景国际大酒店3楼 66256619,自助餐 婚宴酒店 阜成门,黄油大虾 三文鱼 牛排,122,6.6,8.1,7.7,658,116.363335,39.937073
王胖子驴肉火烧(护国寺店) 分店,/shop/2692357,小吃快餐,西城区护国寺街113号 83225292,其他小吃 新街口,驴肉火烧 驴杂汤 小米粥,18,8.7,7.3,7.4,658,116.38052,39.94123
鑫巴蜀水煮鱼川菜馆(大兴店) 分店,/shop/513185,川菜,大兴区兴丰街75号 69265333,川菜 婚宴酒店 黄村,水煮鱼 宫保鸡丁 毛血旺,52,8.4,7.1,7.2,657,116.34589,39.73818
王府半岛酒店JING餐厅,/shop/511957,自助餐 海鲜,东城区王府井金鱼胡同8号王府半岛酒店B1楼 65106714,自助餐 其他西餐 王府井/东单,海鲜 甜品 龙虾,268,8.4,9,9,657,116.42283,39.921207
便宜坊烤鸭店(航天桥店) 分店,/shop/580230,北京菜,海淀区阜成路101号永兴花园饭店内 88146066,烤鸭 婚宴酒店 航天桥,烤鸭 芥末鸭掌 干烧鸭四宝,117,7.6,7.6,6.7,657,116.293236,39.93148
真功夫(数码大厦店) 分店,/shop/1935307,小吃快餐,海淀区中关村南大街2号数码大厦A座1楼 51627709,快餐/简餐 双榆树,原盅蒸饭 排骨套餐 香菇鸡腿饭,27,6.9,6.7,6.9,656,116.3302,39.97181
山城辣妹子重庆火锅(甘露园店) 分店,/shop/513595,火锅,朝阳区甘露园南里一区11号楼 85779091,重庆火锅 十里堡,麻团 泡椒凤爪 绿豆汤,72,8.3,7.9,8,656,116.519554,39.922153
新沸腾鱼乡(蓝色港湾店) 分店,/shop/2670223,川菜,朝阳区朝阳公园路6号蓝色港湾国际商区餐饮街中段 59056321,川菜 亮马桥/三元桥,水煮鱼 毛血旺 馋嘴蛙,107,7.7,7.6,6.7,655,116.48247,39.955795
锦芳小吃(磁器口店) 分店,/shop/2236198,小吃快餐,东城区磁器口大都市街南一楼大中电器1楼 67169788,老北京小吃 崇文门,奶油炸糕 面茶 元宵,16,8.3,7.1,7.2,655,116.42438,39.898624
串府,/shop/3038050,小吃快餐,东城区大佛寺东街28号 64220055,烧烤 东四,鸡翅 弓后筋 土豆泥,69,8.1,8.3,7.9,655,116.41733,39.933823
大鸭梨烤鸭店(大慧寺店) 分店,/shop/510314,北京菜,海淀区大慧寺路18号 62189772,烤鸭 婚宴酒店 北下关,烤鸭 家常菜 香辣土豆丝,56,7.9,8,7.8,653,116.33881,39.95752
大鸭梨烤鸭店(航天桥店) 分店,/shop/2294110,北京菜,海淀区阜成路北三街81号 68988117,烤鸭 婚宴酒店 航天桥,烤鸭 蓝莓山药 水煮鱼,60,7.6,7.7,7,652,116.323364,39.930923
大鸭梨烤鸭店(回龙观店) 分店,/shop/2119834,北京菜,昌平区育知东路回龙观龙腾苑六区10号楼 81732276,烤鸭 婚宴酒店 回龙观,烤鸭 大拌菜 水煮鱼,60,7.9,8,7.6,651,116.340866,40.079826
中国大饭店咖啡苑,/shop/508159,自助餐,朝阳区建国门外大街1号中国大饭店2楼大堂 65052266,自助餐 婚宴酒店 国贸 建外大街,甜点 三文鱼 生蚝,310,8.4,8.9,8.8,650,116.46561,39.915623
渝乡人家(三元桥店) 分店,/shop/2251132,川菜,朝阳区东三环北路丙2号天元港中心B座3楼 84417068,川菜 亮马桥/三元桥,水煮鱼 毛血旺 夫妻肺片,76,8,8.2,8.1,649,116.466194,39.961514
全聚德烤鸭店(什刹海店) 分店,/shop/2267545,北京菜,西城区西大街57号荷花市场内 66171570,烤鸭 婚宴酒店 什刹海,烤鸭 盐水鸭肝 火燎鸭心,151,8.3,8.4,8.3,649,116.39828,39.94025
九头鹰酒家(西外店) 分店,/shop/512966,湖北菜,西城区西直门外大街141号 68353919,湖北菜 西直门/动物园,藕炖排骨 热干面 珍珠元子,49,8.3,7.7,8.2,649,116.34131,39.944153
红鼻子米粉,/shop/510398,小吃快餐,西城区广安门外北滨河路甲1号 63438367,粉面馆 广外大街,卤菜粉 酸辣米粉 酸笋,40,7.9,6,6.3,648,116.35473,39.89732
一味一诚烤全鱼(北新桥店) 分店 (暂停营业),/shop/3544585,川菜,东城区东四北大街76-3号 84036950,烤鱼 东四 东直门,烤鱼 香辣烤鱼 豆豉烤鱼,53,8.3,7.3,8,646,116.42362,39.943737
华天新川面馆(缸瓦市店) 分店,/shop/2204812,小吃快餐,西城区西单北大街甲1号 66179838,粉面馆 西单,麻辣凉面 凉面 担担面,14,8.1,7.1,7.4,646,116.38006,39.92464
兄弟川菜(回龙观店) 分店,/shop/1921426,川菜,昌平区育知西路回龙观风雅园三区3号楼 81710745,川菜 回龙观,水煮鱼 毛血旺 泉水牛蛙,58,8.3,8,8,645,116.328926,40.085636
川嫂麻辣烫,/shop/512635,小吃快餐,西城区新街口南大街大帽胡同2号 66112286,麻辣烫 地安门 什刹海,麻辣烫 热干面 酸辣粉,26,7.7,4.7,5.6,644,116.37861,39.94174
小六汤包(星火西路店) 分店,/shop/5455263,小吃快餐 北京菜,朝阳区星火西路17号底商 56213158,包子 家常菜 朝阳公园/团结湖,虾肉汤包 小六黄桂粥 汤包,40,8.4,8.4,9,643,116.5075,39.945812
鼎鼎香(新光天地店) 分店,/shop/2193142,火锅,朝阳区建国路87号新光天地6楼D6006号 65305997,其他火锅 大望路,烧饼 麻酱小料 肉骨茶锅底,192,8.2,8.9,8.3,642,116.48489,39.91547
水彩私家馆,/shop/2343661,川菜,西城区大秤钩胡同9号 66015727,烤鱼 西单,香辣烤鱼 刺身木耳 豆豉烤鱼,71,8,8.1,7.6,640,116.38364,39.91624
四川仁火锅(交大店) 分店,/shop/5655853,火锅,海淀区交大东路25号佰金KTV 3楼 82163153,其他火锅 北下关 西直门/动物园,嫩牛肉 毛肚 虾滑,76,8.9,9,9,639,116.3547,39.95594
巴渝兄弟川菜(鼓楼店) 分店,/shop/514131,川菜,东城区鼓楼东大街121号 64056681,川菜 安定门,泉水牛蛙 宫保鸡丁 毛血旺,61,8.2,7.1,7.1,639,116.40925,39.947308
乙十六(地坛店) 分店,/shop/1898398,北京菜,东城区和平里中街乙16号 64281188-106,粤菜 婚宴酒店 和平里,鹅肝 海虾 佛跳墙,486,8.2,9.5,9,637,116.418015,39.962975
芦月轩(方庄店) 分店,/shop/1898506,火锅,丰台区刘家窑横七条16号院3号楼 67632828,羊蝎子 刘家窑,羊蝎子 炸腐竹 面片,66,8.4,7.7,7.7,637,116.43039,39.862457
阿俊酒家,/shop/512263,北京菜,海淀区王庄小区33号综合楼2楼 82375681,家常菜 婚宴酒店 五道口,水煮鱼 铁板三种活鱼 铁板,50,7,7.1,6.8,636,116.346886,40.00499
黄飞红麻辣花生(阜石路店) 分店,/shop/2641327,小吃快餐,海淀区阜石路69号锦绣大地1号馆B厅028号 88208158,零食 食品茶酒 五棵松,麻辣花生,9,8.7,6.4,6.6,633,116.190445,39.930984
大宅门,/shop/512983,北京菜,昌平区府学路23号 80108833,官府菜 婚宴酒店 昌平镇,石锅烤虾 西红柿牛腩 炸虾球,135,7.8,8.8,8.2,633,116.25916,40.22792
萨莉亚(王府井店) 分店,/shop/3533620,西餐,东城区王府井大街255号王府井百货7楼 85111066,西式简餐 王府井/东单,意面 金枪鱼沙拉 肉酱多利亚饭,37,7.7,8,7.9,632,116.41739,39.920155
大清花(白纸坊店) 分店,/shop/581124,小吃快餐 东北菜,西城区白纸坊西街8号1-2楼 83539038,东北菜 婚宴酒店 右安门,冰花煎饺 拔丝白薯 饺子,62,7.6,7.4,7.2,630,116.36783,39.88377
大城小味麻辣香锅(新中关店) 分店,/shop/3179593,川菜,海淀区中关村大街19号新中关购物中心B1楼B111号 82488029,香锅 中关村,金针菇 青笋 鱼豆腐,54,6.7,7,6.3,630,116.3212,39.98426
比格比萨(西外店) 分店,/shop/511661,自助餐,西城区西直门外大街137号 68362761,比萨 自助餐 西直门/动物园,鸡翅 黄桃 烤翅,52,6.3,6.5,6.1,630,116.343185,39.944946
丽江龙记斑鱼庄(新街口店) 分店,/shop/4541923,火锅,西城区赵登禹路前帽胡同14号 57225868,云南菜 其他火锅 新街口,斑鱼片 斑鱼三吃 芝士丸,77,8.8,8.5,8.4,629,116.37575,39.94278
鱼师傅,/shop/511503,北京菜,近郊怀柔区渤海镇苇店村 61621024,农家菜 怀柔,板栗红烧肉 烤红鳟鱼 摊柴鸡蛋,70,7.8,7,6.8,627,116.56207,40.411636
金库KTV自助餐,/shop/581581,自助餐,西城区西单北大街130号新一代商城8-10楼 66051199,自助餐 西单,卤肉饭 麻辣烫 奶茶,62,6.5,7.6,6.9,627,116.38185,39.917233
呷哺呷哺(东方银座店) 分店,/shop/2060683,火锅,朝阳区东直门外大街48号银座MALL B1楼 ,其他火锅 三里屯 东直门,麻酱小料 蔬菜拼盘 豆皮,43,8.2,7.3,7.7,627,116.44171,39.94616
百合素食(草园胡同店) 分店,/shop/1960828,素菜,东城区东直门北小街草园胡同甲23号 64052082,素菜 东直门,南瓜羹 千层饼 素肠,88,8,8.9,8.5,627,116.43061,39.948833
金百万烤鸭店(吴家村店) 分店,/shop/4293219,北京菜,丰台区吴家村路3号 51755116,烤鸭 家常菜 青塔,烤鸭 精品烤鸭 水煮鱼,58,8.3,8.3,8.4,626,116.25146,39.89522
3000浦,/shop/3383881,火锅,丰台区南三环中路刘家窑桥西小铁营10号 67605300,韩国料理 其他火锅 刘家窑,黄桃 烤五花肉 南瓜粥,65,8.3,8.6,8.7,626,116.43236,39.863876
老街兔盐帮菜,/shop/6208227,川菜,东城区东直门外新中街甲1号 64172399,川菜 东直门,老街兔头 自贡大麻鱼 自贡仔姜蛙,94,9,8.8,8.7,625,116.44542,39.94661
好伦哥(永定路店) 分店,/shop/510584,自助餐,海淀区复兴路甲36号百朗园东北角 88204686,自助餐 公主坟/万寿路,鸡翅 烤鸡翅 pizza,52,6.9,6.8,6.5,625,116.269806,39.913246
聚点串吧(虎坊桥店) 分店,/shop/3209164,小吃快餐,西城区珠市口大街临8号 63025678,烧烤 宣武门,烤鸡翅 鸡脆骨 羊肉串,60,8,8,8.1,624,116.39384,39.89609
印巷小馆(南锣鼓巷店) 分店,/shop/8849763,北京菜,西城区南锣鼓巷菊儿胡同105号 84084788,家常菜 什刹海 地安门,甜汁爆鲜虾 印巷红盖 金包咖喱牛肉,70,8.2,8.5,8,622,116.410164,39.945618
大渔铁板烧(工体店) 分店,/shop/2364487,日本,朝阳区工体东路丙2号中国红街6号楼美林大厦3楼 85871180,日式烧烤/铁板烧 日式自助 三里屯,鳕鱼 扇贝 火焰冰淇淋,191,8.1,7.6,7.8,622,116.45721,39.937115
万龙洲海鲜大酒楼(亚运村店) 分店,/shop/510333,海鲜,朝阳区北四环东路安慧里四区15号楼五矿大厦2楼 64989898,海鲜 粤菜 亚运村,蒜茸粉丝蒸扇贝 龙虾三吃 基围虾,173,8.5,8.4,8.5,620,116.419525,39.995407
阳光海岸自助百汇(辉煌店) 分店,/shop/3010552,自助餐,海淀区西翠路19号辉煌净雅大酒店4楼 68166111,自助餐 婚宴酒店 五棵松,哈根达斯 三文鱼 酥皮蘑菇汤,193,7.5,7.8,8.2,619,116.289536,39.912918
静莲斋素食(大佛寺店) 分店,/shop/508618,素菜,东城区东四西大街隆福广场A座1楼 64052433,素菜 东四,二指禅 南瓜羹 京酱肉丝,54,8.6,8.4,8.7,618,116.417274,39.93578
独一味万州烤鱼(簋街老店) 分店,/shop/513901,川菜,东城区东直门内大街220-1号 64016128,烤鱼 东直门,香辣烤鱼 豆豉烤鱼 麻辣烤鱼,71,8,6.5,6.9,616,116.42704,39.94696
拾味馆,/shop/2561626,川菜 火锅,丰台区马家堡西路15号时代金街2楼 67578522,川菜 其他火锅 草桥,骨汤 拾味骨汤 拾味扒鱼,59,8,8.2,7.9,614,116.37627,39.852215
洪运轩饭庄(北纬路店),/shop/568666,火锅,西城区北纬路寿长街二条 63131914,涮羊肉 虎坊桥,羊肉 半边云 生吃羊肉,78,8.2,5.8,6.5,614,0,0
宏状元粥店(亚运村店) 分店,/shop/510280,小吃快餐,朝阳区慧忠北路安慧北里安园1号楼 64925659,粥店 亚运村,皮蛋瘦肉粥 扁豆焖面 状元及第粥,30,7.6,7.3,7.2,614,116.41728,40.008663
喜派吉烤肉自助餐厅,/shop/5471691,小吃快餐 自助餐,海淀区北三环西路甲8号中坤广场E座1楼107号 62120400,烧烤 自助餐 双榆树,韩式肥牛 五花肉 蒜香牛肉,56,8.3,8.5,8.5,613,116.35007,39.971687
峰尚圣宴(人民大学店) 分店,/shop/3535477,北京菜,海淀区中关村大街59号中国人民大学西门南侧 62511717,官府菜 淮扬菜 中关村 苏州桥,芒果布丁 象形榴莲酥 杨枝甘露,74,8,8.5,8.1,611,116.325455,39.97708
大鸭梨烤鸭店(望京店) 分店,/shop/513106,北京菜,朝阳区花家地东路5号 64716033,烤鸭 婚宴酒店 望京,烤鸭 水煮鱼 大拌菜,58,7.8,7.8,7.1,611,116.4837,39.98834
毛家臭豆腐(地安门店) 分店,/shop/2060623,小吃快餐,西城区地安门小吃店旁 66167970,其他小吃 地安门,臭豆腐 毛氏臭豆腐,4,6.7,4,5,608,116.4021,39.94206
金百万烤鸭店(望京店) 分店,/shop/510727,北京菜,朝阳区湖光北街南湖中园一区211号楼 64746669,烤鸭 婚宴酒店 望京,烤鸭 水煮鱼 狮子头,67,8.4,8.1,8.5,607,116.468254,40.006313
翻滚的辣椒,/shop/5355204,火锅,东城区东四北大街82号 84010854,其他火锅 东四,梭边鱼 酸梅汤 乌鸡片,89,8.2,8.4,8.5,607,116.423584,39.943607
老诚伊(牛街店) 分店,/shop/2400490,火锅,西城区牛街11号 58373556,羊蝎子 牛街,羊蝎子 面片 葱花饼,67,8.7,7.5,6.9,606,116.369896,39.891117
东北虎家乡菜,/shop/508087,东北菜,海淀区知春路57号 58724618,东北菜 双榆树 中关村,酱腔骨 锅包肉 肉丝拉皮,48,7.7,7.2,7.3,606,116.34203,39.98318
全鑫园烤鸭店(潘家园店) 分店,/shop/508957,北京菜,朝阳区东三环农光里12号 67320915,烤鸭 劲松/潘家园,烤鸭 宫保鸡丁 火燎鸭心,58,7.8,6.9,7.2,605,116.4698,39.887512
串来串去串吧(中关村店) 分店,/shop/2527882,小吃快餐,海淀区中关村大街49号 62552666,烧烤 中关村,蜜汁鸡翅 骨肉相连 烤面包片,56,7.4,6.9,6.8,602,116.32492,39.97873
俏江南(东方银座店) 分店,/shop/511610,川菜,朝阳区东直门外大街48号银座百货4楼 84476171,川菜 婚宴酒店 三里屯 东直门,江石滚肥牛 麻酱油麦菜 水煮鱼,146,7.9,8.6,8.5,601,116.441246,39.94529
九头鹰酒家(苏州桥店) 分店,/shop/510513,湖北菜,海淀区万泉河路68号紫金大厦旁 82650808,湖北菜 婚宴酒店 苏州桥,珍珠丸子 热干面 莲藕排骨,45,8.1,6.9,7.9,601,116.314285,39.972687
万丰全国小吃城,/shop/3541102,小吃快餐,丰台区万丰路306号 64886868,其他小吃 婚宴酒店 六里桥/丽泽桥,爆肚 门钉肉饼 羊肉串,54,6.9,8.2,7.8,597,116.30028,39.877575
顺口溜(万达店) 分店,/shop/1888831,小吃快餐 西北菜,朝阳区建国路93号院万达广场18-01-04号 58207363,西北菜 其他小吃 大望路,肉夹馍 岐山臊子面 香锅扯面,26,7.3,6.7,6.6,597,116.4783,39.916847
花渡铁板烧,/shop/572410,日本 自助餐,朝阳区朝外门大街乙12号1号楼昆泰国际大厦3楼 58797188,日式烧烤/铁板烧 自助餐 朝外大街,大虾 扇贝 牛肉卷金针菇,211,7.8,8.2,7.9,597,116.4478,39.92898
猫眼餐厅(团结湖店) 分店,/shop/2205169,西餐,朝阳区团结湖北头条10号 65821896,比萨 朝阳公园/团结湖,金枪鱼沙拉 超级至尊 雪糕黑天使,47,7.4,7.5,7,596,116.47136,39.937565
小洞天火锅城(东直门簋街总店) 分店,/shop/508365,川菜 火锅,东城区东直门内大街260号 84049556,其他火锅 川菜 东直门,金针菇 火锅 馋嘴蛙,76,8.6,8.2,8.4,595,116.42457,39.946976
平娃三宝(中纺街店) 分店,/shop/2026960,小吃快餐,朝阳区中纺街向军庄路甲10号 65031831,粉面馆 朝外大街,平娃削面 羊肉串 烤翅,56,8.6,7.5,7.7,595,116.464874,39.934086
集天小吃(北师大店) 分店,/shop/516228,小吃快餐,海淀区北京师范大学院东门留学生楼 58809037,其他小吃 北太平庄,石锅拌饭 麻辣香锅 羊肉烩面,28,7.4,7.2,7,595,116.37379,39.967243
渝乡人家(朝阳门店) 分店,/shop/510381,川菜,朝阳区朝阳门外大街20号联合大厦5楼 65883841,川菜 朝外大街,水煮鱼 毛血旺 川北凉粉,72,7.8,7.9,7.5,594,116.445175,39.928726
天一竹山珍菌火锅(崇文门店) 分店,/shop/512659,火锅,东城区崇文门外大街3-5号新世界百货2期青春馆3楼 67081651,其他火锅 崇文门,菌汤锅底 蘑菇拼盘 各种菌类,44,7.7,6,5.8,594,116.42452,39.904358
窑台四季涮肉 分店,/shop/511453,火锅,西城区陶然亭路12号 63567249,涮羊肉 菜市口,鲜羊肉 小料 羊肉片,71,8.3,7.1,7.1,593,116.38475,39.884785
小肥羊(上地华联店) 分店,/shop/2940556,火锅,海淀区农大南路1号院1号楼华联商厦4楼 62667817,其他火锅 上地,羊肉 锅底 宽粉,67,7.9,7.9,7.3,592,116.31816,40.034508
爽！桂桂(知春路店) 分店,/shop/2370670,小吃快餐,海淀区知春路29号大运村公寓7号楼底商 82358785,粉面馆 双榆树 中关村,牛腩粉 卤菜粉 叉烧粉,17,8,7.8,7.8,592,116.34892,39.983196
贵州大厦贵州厅,/shop/510874,贵州菜,朝阳区北三环樱花西街18号贵州大厦2楼 58109988,贵州菜 安贞,酸汤鱼 花江狗肉 米豆腐,116,8,7.3,7.4,591,116.4247,39.97629
东来顺饭庄(五道口店) 分店,/shop/2404240,火锅,海淀区成府路28号五道口购物中心5楼13号 62666199,涮羊肉 五道口,火锅 羊肉 肥牛,93,6.7,6.3,6,591,116.34586,39.99833
欧记专业麻辣烫,/shop/513677,小吃快餐,朝阳区金台路9路总站华德眼科北侧胡同往东200米路南 15001010860,麻辣烫 朝阳公园/团结湖,麻辣烫 酸辣粉 凉面,25,8.8,6.9,7,590,116.48463,39.928482
全聚德烤鸭店(三元桥店) 分店,/shop/508127,北京菜,朝阳区东三环北路甲2号京信大厦1楼 84492760,烤鸭 婚宴酒店 亮马桥/三元桥,烤鸭 芥末鸭掌 盐水鸭肝,168,7.8,7.6,7.5,589,116.46819,39.959454
台湾呷哺呷哺涮涮锅(海龙店) 分店,/shop/513489,火锅,海淀区中关村大街1号海龙大厦7楼 ,其他火锅 中关村,麻酱小料 蔬菜拼盘 肥牛,32,7.4,5.7,6,588,116.32187,39.989193
华安御宫火锅城,/shop/4105604,火锅,朝阳区民族园路1号42栋1楼 82994791,其他火锅 亚运村,虾滑 雪龙雪花肥牛 马蹄甘蔗水,97,8.3,9,8.5,588,116.39468,39.992233
新疆阿达西新疆菜(金台路店) 分店,/shop/583581,新疆菜,朝阳区金台北里25号楼 85992065,新疆菜 朝阳公园/团结湖,特色大盘鸡 肉筋 肉串,42,8.1,6.7,7.5,587,116.484375,39.927723
青年餐厅(翠屏北里店) 分店,/shop/1894726,北京菜,通州区翠屏北里西区13号楼物业会所 81517673,家常菜 婚宴酒店 果园,烤鸭 青年拌菜 香辣美容蹄,66,8,8.5,7.9,587,116.65016,39.896935
面爱面(新天地店) 分店,/shop/511081,小吃快餐,东城区王府井大街东方广场地铁层BB30号 85186074,快餐/简餐 王府井/东单,骨汤拉面 面爱面 人形烧,34,6.7,6,5.9,587,116.42093,39.916023
九头鸟酒家(世纪金源店) 分店,/shop/1906159,湖北菜,海淀区远大路1号金源新燕莎MALL5楼西 88866606,湖北菜 婚宴酒店 远大路,莲藕炖排骨 珍珠丸子 热干面,60,7.8,7.7,7.4,587,116.29456,39.96503
华天新川面馆(地安门店) 分店,/shop/2292484,小吃快餐,西城区地安门外大街丁141号 84035200,粉面馆 地安门 什刹海,凉面 新川凉面 酸辣瓜条,14,8.2,6.5,6.6,587,116.40244,39.94057
东方饺子王(复兴门店) 分店,/shop/511765,小吃快餐,西城区南礼士路丙25号 68058733,饺子 月坛,三鲜饺子 炝拌土豆丝 鲜虾水饺,32,8.3,8.1,8,587,116.35898,39.913784
羲和雅居,/shop/509307,北京菜,朝阳区朝阳门外日坛北路日坛公园东北角 85611915,其他中餐 烤鸭 建外大街 国贸,烤鸭 宫爆虾球 芝麻牛肉,135,8,8.7,7.9,586,116.45291,39.922726
青年餐厅(陶然亭店) 分店,/shop/512022,北京菜,西城区陶然亭路口B39号 63552852,家常菜 婚宴酒店 菜市口,宫爆鸡丁 毛血旺 水煮鱼,53,7.7,7.7,7.4,585,116.39385,39.885303
串来串去串吧(簋街店) 分店,/shop/1999966,小吃快餐,东城区东直门内大街194号 64060081,烧烤 东直门,鸡翅 蜜汁鸡翅 烤生蚝,55,7.6,7.4,7.6,585,116.42834,39.946926
德盛净雅大酒店,/shop/1909474,海鲜,西城区黄寺大街15号 58193888,鲁菜 海鲜 德外大街 安贞,海参汤 大包子 鲅鱼水饺,210,8.1,8.8,9,583,116.39583,39.96953
箩箩酸汤鱼火锅(簋街一店) 分店,/shop/511787,贵州菜,东城区东直门内大街186号 64051717,贵州菜 东直门,酸汤鱼 酸汤鲶鱼 米豆腐,82,7.7,6.4,6.8,582,116.42969,39.946976
丽江庭院之爱在路上(西单店) 分店,/shop/5347005,火锅,西城区西单北大街大酱坊胡同7号 66034663,其他火锅 云南菜 西单,斑鱼片 芝士丸 各种丸子,133,8.8,9.3,9.1,582,116.381485,39.924934
久久丫鸭颈王 分店,/shop/511510,小吃快餐,多家连锁店 64417045,熟食 食品茶酒,鸭脖子 藕片 鸭肠,17,7.8,5.9,6.6,582,0,0
大鸭梨烤鸭店(花园村店) 分店,/shop/2353375,北京菜,海淀区车公庄西路18号 68473054,烤鸭 婚宴酒店 航天桥,烤鸭 水煮鱼 宫保鸡丁,62,7.9,7.9,7.5,582,116.32991,39.93774
小肠陈饭庄(方庄店) 分店,/shop/510326,小吃快餐,丰台区方庄环岛南方群园三区11号楼 67620251,老北京小吃 方庄,卤煮火锅 卤煮火烧 蓑衣黄瓜,49,7.9,6.8,6.9,581,116.437096,39.87186
四川会馆(曙光西里店) 分店,/shop/514435,川菜,朝阳区曙光西里甲1号静安庄 58222888,川菜 婚宴酒店 亮马桥/三元桥,夫妻肺片 水煮鱼 辣子鸡,166,8.1,8.8,8.2,581,116.451454,39.956814
蜜桃餐厅(SOHO尚都店) 分店,/shop/2223139,贵州菜,朝阳区东大桥路8号SOHO尚都西塔3楼1330号 59003106,贵州菜 朝外大街,毕节酸菜炒汤圆 酸汤鱼 干锅牛蹄筋,68,7.9,7.9,8,581,116.45739,39.924755
汉堡王(望京华彩店) 分店,/shop/4135153,西餐,朝阳区广顺北大街16号望京华彩商业中心1楼A101商铺 59780430,西式简餐 望京,皇堡 培根芝士皇堡 嫩烤鸡腿堡,31,9,8.8,8.8,581,116.47478,40.01621
阳光海岸自助百汇(黄寺店) 分店,/shop/3010558,自助餐,西城区黄寺大街15号黄寺净雅大酒店B1楼 58193800,自助餐 德外大街 安贞,哈根达斯 三文鱼 酥皮奶油蘑菇汤,189,7.7,7.9,8.3,580,116.39556,39.969532
口留香煎饼(西直门店) 分店,/shop/2377600,小吃快餐,西城区西直门外大街1号凯德MALL购物中心B1楼 ,其他小吃 西直门/动物园,煎饼 传统煎饼 沙拉鸡肉煎饼,8,8,6.6,7.1,580,116.35908,39.947105
小土豆美食(方庄店) 分店,/shop/509306,东北菜,丰台区方庄芳城园蒲方路甲12号 67629084,东北菜 方庄,酱小土豆 酱脊骨 小土豆,49,7,7,6.8,579,116.43861,39.871574
聚点串吧(鼓楼店) 分店,/shop/2047744,小吃快餐,东城区鼓楼外大街60号 84128412,烧烤 安定门,鸡脆骨 鸡翅 涮毛肚,57,8,7.9,7.9,578,116.402245,39.957615
老西安饭庄(方庄店) 分店,/shop/4560989,西北菜,丰台区蒲方路30号 52859755,西北菜 清真菜 方庄,羊肉串 羊肉泡馍 精品羊肉泡馍,53,8.2,7.9,7.7,577,116.43283,39.871574
江边城外烤全鱼(酒仙桥店) 分店,/shop/5285765,川菜,朝阳区酒仙桥路15号 64356678,烤鱼 酒仙桥,清江鱼 香辣烤鱼 烤鱼,66,8.7,8.3,8.5,577,116.496056,39.980957
东方饺子王(魏公村店) 分店,/shop/5269999,小吃快餐,海淀区学院南路82号 62158699,饺子 魏公村,黄瓜鲜虾饺子 三鲜水饺 炝土豆丝,36,9.2,8.9,8.8,576,116.33102,39.96238
名屋铁板烧,/shop/4286209,日本 自助餐,朝阳区日坛北路17号日坛国际酒店B1楼 85693975,自助餐 日式烧烤/铁板烧 朝外大街,大虾 银鳕鱼 菲力牛排,132,7.9,8.3,8.1,575,116.44898,39.92608
金百万烤鸭店(西直门店) 分店,/shop/510712,北京菜,西城区文慧园北路9号 62257676,烤鸭 婚宴酒店 西直门/动物园 阜成门,烤鸭 水煮鱼 酱香茄子,59,7.8,7.4,7.2,575,116.36811,39.959583
阳坊大都涮羊肉(大都总店) 分店,/shop/516425,火锅,昌平区阳坊镇阳坊商业街阳坊大都饭店2楼 69760282,涮羊肉 昌平镇,羊肉 烧饼 糖蒜,75,8.6,8.1,7.8,574,116.14667,40.14386
西贝西北菜(望京店) 分店,/shop/5628167,西北菜,朝阳区阜通东大街6号院4号楼方恒购物中心3楼 84785908,西北菜 婚宴酒店 望京,西贝面筋 功夫鱼 羊肉串,77,8.8,8.7,8.8,574,116.48868,39.995537
老上海城隍庙小吃(知春路店) 分店,/shop/510551,小吃快餐,海淀区知春路17号 82319814,快餐/简餐 双榆树 中关村,叉烧包 大排面 三丝春卷,20,6.7,6.2,5.7,574,116.35463,39.982456
荷塘月色(左家庄店) 分店,/shop/507689,素菜,朝阳区左家庄西街柳芳南里12号楼 64653299,素菜 婚宴酒店 左家庄,荷塘月色 水煮三国 素鸭,101,7.6,8.4,7.9,574,116.444084,39.959656
愚掌门鱼火锅(松榆西里店) 分店,/shop/2699674,火锅,朝阳区松榆西里71号 67346546,鱼火锅 劲松/潘家园,斑鱼 绿豆爽 花生米,82,9.1,8.1,8.4,573,116.47053,39.877823
燕兰楼(仓夹道店) 分店,/shop/4282564,西北菜,东城区东四十条仓夹道7号 84075779,西北菜 清真菜 东四,手抓羊肉 羊肉串 酿皮,77,8,8.1,7.6,573,116.43816,39.940887
川成元麻辣香锅(中关村店) 分店,/shop/2092234,川菜,海淀区中关村大街15号中关村广场购物中心B1楼大食代内 59863783,香锅 中关村,青笋 金针菇 午餐肉,72,7.7,7.6,7,572,116.3229,39.985703
老诚一锅(双榆树店) 分店,/shop/586312,火锅,海淀区双榆树北里甲18号 62553200,羊蝎子 婚宴酒店 中关村,羊蝎子 酸梅汤 面片,75,8.9,8.3,8.4,571,116.330414,39.97722
大鸭梨烤鸭店(马家堡店) 分店,/shop/514340,北京菜,丰台区角门北路5号 67522179,烤鸭 婚宴酒店 洋桥/木樨园,烤鸭 宫保鸡丁 水煮鱼,65,7.5,7.8,7.1,571,116.382866,39.856445
晚枫亭(望京店) 分店,/shop/3988816,日本,朝阳区望京西路39号 64393330,日式烧烤/铁板烧 日式自助 望京,三文鱼 烤鳗鱼 铁板大虾,186,8,8.6,8.3,568,116.463905,39.99859
阿西娅食府(中关村店) 分店,/shop/3484885,西北菜,海淀区苏州街29号 62630328,西北菜 清真菜 中关村,烤羔羊肉 酿皮 手抓羊肉,80,8.6,8.4,8.1,568,116.31126,39.986904
晓林火锅(簋街一店) 分店,/shop/510489,火锅,东城区东直门内大街246号 64045507,其他火锅 东直门,鸳鸯火锅 山楂汁 免费饮料,75,6.8,6,6.2,565,116.42528,39.946934
大食代(中关村店) 分店,/shop/1924264,小吃快餐,海淀区中关村大街15号中关村广场购物中心A区132号 51721429,快餐/简餐 中关村,红豆冰山 麻辣烫 过桥米线,24,6.4,6.4,5.8,565,116.31783,39.98815
国华酒楼(右内店) 分店,/shop/515074,北京菜,西城区右安门内大街19号 83535272,家常菜 婚宴酒店 右安门,宫爆鸡丁 炖吊子 糖醋小排,59,7.4,6.6,6.6,564,116.37038,39.88266
李小老烧饼(常营民族家园店) 分店,/shop/2642899,小吃快餐,朝阳区常营民族家园1号内10-11号 13366786228,其他小吃 管庄,牛肉烧饼 烧饼 芝麻烧饼,9,8.8,6.3,7.6,563,116.594055,39.931145
全聚德烤鸭店(朝阳北路店) 分店,/shop/5135763,北京菜,朝阳区青年路雅成一里19号楼世丰国际大厦2楼 85528880,烤鸭 婚宴酒店 十里堡,烤鸭 盐水鸭肝 芥末鸭掌,125,8.8,8.6,8.6,560,116.52799,39.930447
阳坊胜利涮羊肉(胜利文化园店) 分店,/shop/507700,火锅,昌平区阳坊镇阳坊胜利文化园内 69766388,涮羊肉 昌平镇,涮羊肉 火烧 羊杂汤,72,8.5,7.6,7.4,558,116.14601,40.144566
凯琳虎坊桥卤煮,/shop/2998306,小吃快餐,西城区虎坊桥路7号工人俱乐部南侧 63538357,老北京小吃 虎坊桥,炒肝 包子 卤煮,22,8.1,6.2,6,557,116.39097,39.894363
惠丰涮肉馆(德宝新园店),/shop/508723,火锅,西城区西直门外大街德宝新园4号 68311365,其他火锅 西直门/动物园,鲜羊肉 羊肉 糖蒜,76,8.3,7.4,7.7,557,116.352615,39.945763
一麻一辣麻辣香锅(老山店) 分店,/shop/3099412,川菜,石景山区石景山路21号 88926550,香锅 鲁谷,牛肉丸 鸡翅中 金针菇,65,8.2,8.4,8.2,556,116.22334,39.913357
西贝西北菜(翠微路店) 分店,/shop/5512757,西北菜,海淀区翠微路12号凯德MALL购物中心2楼 68279827,西北菜 婚宴酒店 公主坟/万寿路,酸奶 面筋 羊肉串,72,9,9,9.2,556,116.30935,39.91842
蜀中仙川味大酒楼,/shop/509114,川菜,海淀区北蜂窝中路17号通联大酒店1楼 63962354,川菜 婚宴酒店 公主坟/万寿路,水煮鱼 三峡石脆肠 牛蛙,78,7.9,8.1,8,555,116.33087,39.905537
金融街洲际酒店季候风自助餐厅,/shop/581147,自助餐,西城区金融大街11号洲际酒店5楼 58525916,自助餐 婚宴酒店 复兴门,哈根达斯 甜品 三文鱼,274,8.2,8.9,8.8,555,116.364204,39.92531
西单鱼库,/shop/4184549,川菜,西城区西单北大街东斜街72号 66016072,烤鱼 西单,麻辣烤鱼 豆豉烤鱼 大拌菜,65,7.7,8.1,7.7,554,116.38071,39.921295
早春二月(安定门店) 分店,/shop/2357251,川菜,东城区安定门内大街车辇店 64069521,川菜 婚宴酒店 安定门,烤兔腿 两江麻辣鱼 馋嘴蛙,79,7.9,8.3,7.9,553,116.41235,39.95159
西海子西园烧饼夹肉,/shop/1894123,小吃快餐,通州区玉桥西路格兰晴天小区南门 69555628,其他小吃 梨园,烧饼夹肉 疙瘩汤 酸辣汤,22,8.9,6.3,6.7,553,116.68054,39.897247
庆丰包子铺(西安门店) 分店,/shop/508326,小吃快餐,西城区西安门大街85号 66175487,包子 西四,炒肝 猪肉三鲜 梅干菜包子,13,7.6,6.4,6.1,553,116.3857,39.928856
尕老汉炝锅鱼,/shop/510649,西北菜,海淀区三里河路41号 68318574,西北菜 航天桥,炝锅鱼 绿色拉面 葱油饼,59,8.2,6.5,7.2,553,116.34071,39.92986
麻里麻里香锅(马家堡店) 分店,/shop/4134308,川菜,丰台区南三环西路16号首地大峡谷购物中心F4-09商铺 87571438,香锅 草桥,鱼豆腐 青笋 午餐肉,47,8,8,8,552,116.372765,39.860245
八先生涮肉坊(三里河店) 分店,/shop/508666,火锅,西城区三里河三区甲14号楼 68520816,涮羊肉 复兴门,涮羊肉 糖蒜 羊肉,88,8.5,6.6,7.6,552,116.34778,39.9138
吴三凉皮,/shop/1932286,小吃快餐,海淀区翠微路26号 68225494,其他小吃 公主坟/万寿路,凉皮 凉面 只有凉皮,5,8.1,6.3,7,551,116.30891,39.915493
九头鹰酒家(知春路店) 分店,/shop/2896561,湖北菜,海淀区海淀南路10号 62563986,湖北菜 中关村,莲藕排骨汤 珍珠丸子 热干面,53,8.7,8.1,8.4,551,116.32075,39.98155
鑫巴蜀水煮鱼川菜馆(和平里店) 分店,/shop/510018,川菜,东城区和平里东街6区18号楼旁 84216868,川菜 婚宴酒店 和平里,水煮鱼 宫保鸡丁 烤鸭,49,8.1,6.6,6.9,550,116.43149,39.961292
记忆鱼味,/shop/4206086,小吃快餐 火锅,东城区雍和宫大街153号交道口北三条 13466701297,其他火锅 烧烤 东直门,石锅鱼 石锅鲶鱼 烤扇贝,56,8.5,8.1,8.5,550,116.42298,39.949768
面香居(大悦城店) 分店,/shop/2384896,小吃快餐,西城区西单北大街甲131号西单大悦城8楼6号 59716108,快餐/简餐 西单,石锅拌饭 骨汤面 鸡丝凉面,28,6.5,6.7,6.8,549,116.38,39.9169
嘉陵楼馋嘴城(簋街总店) 分店,/shop/565067,川菜,东城区东直门内大街273号 64010889,川菜 东直门,馋嘴蛙 水煮鱼 梭边鱼,86,8.6,7.2,7.7,549,116.42407,39.947426
面爱面(城乡店) 分店,/shop/508154,小吃快餐,海淀区复兴路甲23号城乡贸易中心3楼 68296184,快餐/简餐 公主坟/万寿路,骨汤拉面 面爱面 红豆冰山,32,6.7,6.6,6.3,548,116.313995,39.914658
Morio (暂停营业),/shop/2523130,日本,朝阳区工体西路甲7号极栈精品酒店1楼 65516999,日本料理 朝外大街 三里屯,酱煎牛舌 比目鱼浇汁 山黑猪角煮,228,8.2,8.4,8.6,548,116.448944,39.93428
友仁居鲜品肥牛火锅(慧忠北里店) 分店,/shop/2381392,火锅,朝阳区北辰东路慧忠北里411号楼 64971818,其他火锅 亚运村,肥牛 鲜虾滑 烧饼,61,8.5,8.5,8.6,547,116.4075,40.009167
很久以前只是家串店(武圣东里店) 分店,/shop/6252410,小吃快餐,朝阳区武圣东里48号 87379880,烧烤 劲松/潘家园,蜂蜜鸡翅 五花肉 芝士鸡翅,79,8.6,8.8,8.9,547,116.47449,39.884476
沸腾夜话(北蜂窝路店) 分店,/shop/2529718,火锅,海淀区北蜂窝路1-3号 63958323,其他火锅 公主坟/万寿路,冷锅鱼 柠檬水 梭边鱼,71,8.1,7.8,7.8,546,116.33516,39.912144
羲和小馆(望京店) 分店,/shop/5434932,北京菜,朝阳区广顺北大街33号望京凯德MALL3楼 64712966,烤鸭 婚宴酒店 望京,烤鸭 张氏狮子头 萝卜干腊肉炒饭,92,8.8,8.9,8.9,545,116.475494,39.99871
一麻一辣麻辣香锅(双榆树店) 分店,/shop/3110971,川菜,海淀区科学院南路双榆树小区东里40号 82139404,香锅 中关村,鸡翅中 牛肉丸 青笋,66,8.3,8.5,8.3,544,116.33235,39.97381
眉州东坡小吃(大屯店) 分店,/shop/516390,小吃快餐,朝阳区北苑路大屯里小区A区2号楼 64800775,其他小吃 亚运村,担担面 酸辣粉 小笼包,33,8.4,8.1,7.9,544,116.4225,40.013897
1976烤翅店(大山子店) 分店,/shop/2005873,小吃快餐,朝阳区万红西街大山子南里13号楼底商 13651253238,烧烤 酒仙桥,烤翅 麻香烤翅 大拌菜,45,8.5,5.8,6.8,544,116.49127,39.988674
京味楼(明苑店) 分店,/shop/516203,北京菜,西城区复兴门大街99号明苑酒店9楼 58399511,家常菜 婚宴酒店 复兴门,豌豆黄 烤鸭 抓炒虾仁,82,7.4,7.6,6.8,543,116.36555,39.91391
稻香村(灯市口第2营业部) 分店,/shop/2429905,小吃快餐,东城区灯市口大街10-2号 65137563,老北京小吃 面包西点 王府井/东单,牛舌饼 萨琪玛 肉松卷,33,9.1,8.1,8.3,543,116.42344,39.92483
陈记火锅(魏公村店) 分店,/shop/3991750,火锅,海淀区中关村南大街28号 62110163,其他火锅 魏公村 西直门/动物园,梭边鱼 虾滑 陈记嫩滑牛肉,59,8.4,8.2,8.6,543,116.33106,39.95678
宝聚都东北菜馆 (暂停营业),/shop/5308129,小吃快餐,海淀区学院南路17号 62051688,烧烤 韩国料理 北下关 西直门/动物园,羊肉串 LA牛排 五花肉金针菇,53,8.3,8.6,8.7,543,116.357834,39.96407
东方汉斯餐厅,/shop/1965157,自助餐,通州区北苑科印小区对面 80888858,拉美烧烤 自助餐 果园,烤鸡翅 烤培根 烤牛排,61,6.8,7.5,6.8,542,116.65001,39.90858
太熟悉家常菜(新源里店) 分店,/shop/509082,北京菜,朝阳区三源里4区14号楼 84486668,家常菜 婚宴酒店 亮马桥/三元桥,宫保鸡丁 烤鸭 水煮鲶鱼,53,7.8,7.5,7.4,540,116.46233,39.958664
金宝净雅大酒店,/shop/2002525,海鲜,东城区朝阳门南小街269号 58171777,鲁菜 海鲜 朝阳门,海参汤 包子 沂蒙风光,244,8.3,8.8,9,538,116.432785,39.92302
山东呛面馒头 分店,/shop/2743717,小吃快餐,东城区鼓楼东大街139-1号 ,其他小吃 地安门 什刹海,豆包 馒头 戗面馒头,6,9,7.3,7.9,537,116.40887,39.94736
三元梅园(台基厂店) 分店,/shop/511175,小吃快餐,东城区崇文门西大街7号 65243015,老北京小吃 崇文门,奶酪 双皮奶 杏仁豆腐,19,8.2,6.9,7,537,116.41986,39.907635
马兰拉面 分店,/shop/507933,小吃快餐,多家连锁店 64425775,粉面馆,牛肉拉面 拉面 羊肉串,14,5.5,5.1,4.6,537,0,0
汉丽轩烤肉超市(中关村店) 分店,/shop/5264059,自助餐,海淀区中关村大街18号中关村科技贸易中心8楼 82538808,自助餐 韩国料理 中关村,培根 五花肉 鲜牛肉,49,7.3,6.8,7,537,116.32372,39.98874
面香八方(五道口店) 分店,/shop/2938852,小吃快餐,海淀区双清路88号华源世纪商务楼2楼 82526818,粉面馆 五道口,刀削面 香辣牛肚面 牛肉面,24,7.9,7.9,7.4,535,116.341095,40.001923
金汤玉线(双井店) 分店,/shop/2684035,小吃快餐,朝阳区东三环中路65号富力广场南区3楼E区336号 59037228,粉面馆 双井,招牌过桥米线 过桥米线 金牌过桥米线,35,7.6,7.4,6.8,535,116.46757,39.90093
海底捞火锅(太阳宫凯德MALL店) 分店,/shop/6106483,火锅,朝阳区太阳宫中路12号太阳宫凯德MALLB1楼50B-51号 84150958,其他火锅 对外经贸,虾滑 牛肉 手切羊肉,96,9.4,9.2,9.5,535,116.45659,39.98098
南锣肥猫(南锣鼓巷一店) 分店,/shop/3498271,川菜,东城区鼓楼东大街130号 51287075,香锅 烤鱼 安定门 地安门,麻辣香锅 午餐肉 青笋,70,7.9,7.6,8,534,116.40902,39.947086
芦月轩(西客站店) 分店,/shop/510123,火锅,丰台区西客站南路1号楼 63272162,羊蝎子 六里桥/丽泽桥,羊蝎子 抻面 宽粉,62,8.5,7.1,7.5,534,116.32413,39.8844
顺口溜(建外店) 分店,/shop/514633,小吃快餐 西北菜,朝阳区东三环中路39号建外SOHO东区1号楼2楼0153室 58696833,西北菜 其他小吃 国贸,肉夹馍 凉皮 酸汤水饺,26,7.7,7.2,7.3,533,116.46607,39.910553
猫抓火锅,/shop/6747759,火锅,丰台区马家堡东路海户西里2号 87295117,其他火锅 洋桥/木樨园,四格锅底 毛肚 油条,76,8.3,9,8.7,533,116.39475,39.862816
四季民福烤鸭店(东四十条店) 分店,/shop/5493867,北京菜,东城区东四十条25号 64013267,烤鸭 东四,烤鸭 贝勒烤肉 干炸丸子,108,9.1,9,8.8,532,116.4364,39.939854
倪氏海鲜大酒店(海泰店) 分店,/shop/513011,海鲜,海淀区北四环中路229号海泰大厦1-5楼 82885077,鲁菜 婚宴酒店 北太平庄,蒜蓉蒸扇贝 海参 大包子,323,7.9,8.6,8.4,531,116.37242,39.994747
金百万烤鸭店(劲松店) 分店,/shop/510724,北京菜,朝阳区武圣路松榆西里6号楼 67301234,烤鸭 婚宴酒店 劲松/潘家园,烤鸭 水煮鱼 铁板茄子,54,7.8,7.7,7.9,531,116.474106,39.879826
恭喜恭喜(双井店) 分店,/shop/5176230,小吃快餐,朝阳区东三环中路65号富力广场VIVA3楼中庭312-313 59037361,饺子 双井,恭喜饺子 鲅鱼饺子 叉烧饺子,32,8.5,8.6,8.5,531,116.46756,39.90093
呷哺呷哺(新光天地店) 分店,/shop/2101723,火锅,朝阳区建国路87号新光天地B1楼 65305865,其他火锅 大望路,麻酱小料 蔬菜拼盘 豆皮,40,8.3,7.6,7.7,531,116.48472,39.916466
北喜日式料理(SOGO庄胜店) 分店,/shop/5199896,日本,西城区宣武门外大街8号庄胜崇光百货新馆5楼 63102055,日式自助 宣武门 西单,三文鱼刺身 烤鳗鱼 甜虾,162,8.5,8.4,8.3,530,116.38159,39.90234
束河人家,/shop/4217553,火锅,东城区北兵马司胡同17号 57218898,云南菜 婚宴酒店 安定门 东直门,包浆豆腐 扇贝 香牛肉,135,9.1,9.2,9.1,529,116.41118,39.9428
热大叔热干面(双井店),/shop/5228580,小吃快餐,朝阳区广渠路66号院百环家园西门 13661115376,粉面馆 双井,热干面 牛肉热干面 原味热干面,16,7.9,6.4,7.9,529,116.46968,39.89687
三味缘(三里河店) 分店,/shop/2315095,火锅,西城区三里河东路11号 68582121,其他火锅 月坛,鲶鱼锅 酸梅汤 鸳鸯火锅,64,8.2,7.7,8.1,527,116.350845,39.915333
宜家瑞典食品屋(四元桥店),/shop/3281959,小吃快餐,朝阳区阜通东大街59号宜家家居1楼 64792345,冰淇淋 其他小吃 望京,圆筒 热狗 瑞典肉圆,20,8.6,8.1,8.3,526,116.470505,39.982567
一麻一辣麻辣香锅(方庄店) 分店,/shop/3147103,川菜,丰台区芳古路方群园4区4号楼 67632656,香锅 方庄,牛肉丸 青笋 午餐肉,65,8.1,8.1,8.1,526,116.43604,39.8672
小肥羊(国贸店) 分店,/shop/4276831,火锅,朝阳区建国路99号中服大厦2楼 65817199,其他火锅 国贸,羊肉 肥牛 锅底,85,8.2,8.4,8.2,526,116.46954,39.91491
2.2私家菜馆,/shop/582926,北京菜,海淀区双榆树西里甲29号 82619881,家常菜 创意菜 双榆树,鸡煲 疙瘩汤 干锅鲇鱼,39,7.6,6.4,7,525,116.330864,39.973866
鸭王烤鸭店(民族园店) 分店,/shop/510286,北京菜,朝阳区民族园路1号 62049932,烤鸭 婚宴酒店 亚运村,烤鸭 盐水鸭肝 芥末鸭掌,119,7.2,6.8,6.5,524,116.397964,39.989082
小木船火锅(安华里店),/shop/512319,火锅,朝阳区安华里504号 64266082,其他火锅 安贞,酸梅汤 羊肉 火锅,55,8.1,7.6,7.7,524,116.409096,39.970284
汉堡王(新光天地店) 分店,/shop/4049710,西餐,朝阳区建国路87号新光天地B1楼 65331492,西式简餐 大望路,皇堡 薯条 培根芝士皇堡,29,9,8.6,8.7,524,116.48472,39.916466
呷哺呷哺(石景山万达店) 分店,/shop/2903311,火锅,石景山区石景山路乙18号万达广场步行街3楼 ,其他火锅 鲁谷,豆皮 麻酱 羊肉,42,8.4,7.8,8,523,116.232956,39.912247
都一处烧麦馆(五道口店) 分店,/shop/6145525,北京菜,海淀区清华东路7号弘大厦底商 82306722,家常菜 五道口,三鲜烧卖 猪肉大葱烧卖 乾隆白菜,45,8.6,8.4,8.6,521,116.35815,40.00592
道乐日本料理(金融街店) 分店,/shop/510813,日本,西城区金融大街33号通泰大厦C座1楼 88086868,日本料理 复兴门,鳗鱼饭 三文鱼 三文鱼刺身,144,7.4,7.8,7.3,521,116.365654,39.916874
南北一家,/shop/2046301,北京菜,丰台区芳古园一区29-4号 67671180-77,家常菜 婚宴酒店 方庄,酥皮肘子 烙饼卷带鱼 鱼头泡饼,74,7.5,7.5,7.1,519,116.4312,39.87189
韩馋翅吧,/shop/1906540,小吃快餐,西城区辛安里胡同10号 64035282,烧烤 地安门,鸡翅 土豆沙拉 微辣鸡翅,52,7.6,5.5,6.5,519,116.40277,39.94594
百叶居(赵登禹路店),/shop/568675,小吃快餐 火锅,西城区赵登禹路117号 66127899,涮羊肉 老北京小吃 新街口,百叶 鲜羊肉 芝麻糖饼,99,8.7,7.9,7.7,519,116.374535,39.942528
鸭王烤鸭店(三里河店) 分店,/shop/2667751,北京菜,西城区三里河东路5号中商大厦B1楼 68581717,烤鸭 月坛,烤鸭 盐水鸭肝 芥末鸭掌,97,7.6,7.6,6.8,518,116.35132,39.918247
俏江南(阳光广场店) 分店,/shop/508234,川菜,朝阳区安立路68号阳光广场1楼东侧门 64951201,川菜 婚宴酒店 亚运村,江石滚肥牛 水煮鱼 麻酱油麦菜,140,8.1,8.8,8.5,518,116.41534,40.00466
紫菩提?饭与茶,/shop/2050390,素菜,朝阳区小关北里北苑路3号 64945266,素菜 安贞,一指禅 荷塘月色 手剥春笋,74,8.2,8.9,8.6,517,116.41415,39.98725
俏巴妹(安贞店) 分店,/shop/4178635,川菜,朝阳区安贞西里5区4号楼安贞华联购物中心西侧 64434942,川菜 香锅 安贞,香辣烤鱼 蕨根粉 酸梅汤,61,8.4,8.4,8.5,517,116.40774,39.976574
美珍香(东方广场店) 分店,/shop/1936114,小吃快餐,东城区东长安街1号东方广场东方新天地1区地铁层食通天大街 ,熟食 食品茶酒 王府井/东单,猪肉脯 牛肉脯 肉松,47,9,8.1,8.2,517,116.418304,39.915714
鼓楼麻辣香锅(西大街店) 分店,/shop/2450734,川菜,西城区鼓楼西大街56号 13121398956,香锅 什刹海 地安门,麻辣香锅 酸梅汤 青笋,59,7.9,6.9,7.3,517,116.39901,39.947174
竹鱼坊(北大总店) 分店,/shop/1933990,川菜,海淀区吉永庄1号 62766068,烤鱼 中关村,麻辣烤鱼 豆豉烤鱼 麻辣鱼,53,7.7,6.3,5.8,516,116.32287,40.000008
碳花烤羊腿(北新桥店) 分店,/shop/3877450,小吃快餐,东城区北新桥三条胡同63号 13801293221,烧烤 东直门,烤羊腿 烤串 疙瘩汤,80,8.8,7,7.8,516,116.44432,39.88882
螺蛳粉先生,/shop/4193036,小吃快餐,海淀区北三环西路5号蓟门里小区东区7号楼西侧 18901245568,其他小吃 北太平庄,螺蛳粉 酸笋 腐竹,23,8.4,6.9,7.8,516,85.909904,39.97905
大渔铁板烧(三里屯店) 分店,/shop/4043014,日本,朝阳区三里屯路19号三里屯太古里南区3楼S2-32号 64168075,日式烧烤/铁板烧 日式自助 三里屯,三文鱼 鳕鱼 扇贝,219,8.1,8.3,8,516,116.46014,39.940224
阿春家蟹黄鲍鱼生煎包(国贸店) 分店,/shop/5718133,小吃快餐,朝阳区东三环中路乙16号 87762399,包子 国贸,全蟹黄生煎包 馄饨 蟹黄灌汤包,44,8.1,8.3,8.1,516,116.46876,39.905
新疆兵团食府,/shop/2415490,新疆菜,西城区马连道南街6号院2号楼 58363988,婚宴酒店 新疆菜 广外大街,特色:羊肉串??大盘鸡??酸奶,75,9,8.7,8.3,515,116.331116,39.887825
西蜀豆花庄(亚运村店) 分店,/shop/510730,川菜,朝阳区慧忠北路安慧北里雅园1号楼 64897778,川菜 亚运村,豆花 水煮鱼 宫爆鸡丁,61,7.8,7.7,7.5,515,116.41899,40.00466
木屋烧烤(欢乐谷店) 分店,/shop/4501006,小吃快餐,朝阳区金蝉西路酷车小镇甲1号 67497577,烧烤 十八里店,扇贝 生蚝 烤鸡翅,64,8,8.2,8,515,116.50738,39.87769
黄记煌三汁焖锅(宣武门店) 分店,/shop/507984,川菜 火锅,西城区宣武门东大街16号楼 63046706,火锅 香锅 宣武门,鲶鱼 鸡翅 鲶鱼锅,68,8,7.8,7.8,515,116.38513,39.90562
雪中鲜渔村(联想桥店) 分店,/shop/2965594,东北菜,海淀区北三环西路28号 62166864,东北菜 双榆树,灶台鱼 贴饼子 哲罗鱼,102,8.5,8.5,8.5,514,116.338585,39.972775
蜀香记,/shop/2488009,川菜,西城区钟声胡同27号 66068769,香锅 西单,香锅鱼 麻辣香锅 油豆皮,62,8,7.2,8.4,513,116.38421,39.915516
悦食悦香,/shop/3014923,自助餐,朝阳区建国门外大街2号银泰中心B1楼 85671568,创意菜 自助餐 建外大街 国贸,杨枝甘露 夫妻肺片 蒜香排骨,136,7.8,8.5,8,512,116.46583,39.913334
印巷小馆(双榆树店) 分店,/shop/8849767,北京菜,海淀区双榆树三街双榆树西里6号楼3号 62531156,家常菜 中关村 双榆树,金包咖喱鸡 甜汁爆鲜虾 印象红盖,72,8.3,8.5,8.3,512,116.32876,39.973938
大鸭梨烤鸭店(左家庄店) 分店,/shop/581652,北京菜,朝阳区左家庄前街1号 64672521,烤鸭 左家庄,烤鸭 水煮鱼 大拌菜,62,8,8.1,7.9,512,116.450676,39.95928
品味中西餐烤肉自助,/shop/3639751,自助餐,海淀区中关村南大街2号华宇时尚购物中心北侧B1楼 51727100,自助餐 中关村,鸡翅 扇贝 烤菠萝,63,7.7,7.9,7.8,511,116.32966,39.97106
呷哺呷哺(安贞店) 分店,/shop/2056714,火锅,朝阳区北三环安贞西里5区4号安贞华联商厦2楼F2-05号 ,其他火锅 安贞,麻酱小料 豆皮 羊肉,40,8.2,7.3,7.6,511,116.40759,39.977024
福满园,/shop/516303,北京菜,朝阳区新源南路10号 64618656,家常菜 亮马桥/三元桥,红烧带鱼 排骨炖豆角 小碗牛肉,58,8.6,6.4,7.2,510,116.457825,39.953148
新侨饭店咖啡厅,/shop/511509,自助餐,东城区崇文门西大街1号新侨饭店A座大厅 65133366-2001,自助餐 崇文门,甜点 三文鱼 北极贝,92,6.3,7.6,6.9,508,116.42335,39.907677
秦记香辣蟹(方庄店) 分店,/shop/509972,川菜,丰台区方庄路芳星园二区9号楼 67619110,香锅 方庄,香辣蟹 笋丁 乌江鱼,136,8.5,6.1,6.3,508,116.44493,39.869774
净心莲(丽都店) 分店,/shop/1922929,素菜,朝阳区将台路6号丽都假日饭店3楼 64376288,素菜 酒仙桥,一指禅 手卷 水煮鱼,212,8.4,9.1,9,508,116.4855,39.982803
金百万烤鸭店(良乡店) 分店,/shop/2243065,北京菜,房山区房山区良乡西潞北大街1号 89366388,烤鸭 婚宴酒店,烤鸭 精品烤鸭 水煮鱼,56,8,8.1,8.2,508,116.14222,39.739967
好伦哥(航天桥店) 分店,/shop/510572,自助餐,海淀区阜成路51-2号2楼 88410081,自助餐 航天桥,烤鸡翅 鸡翅 冰激淋,49,7.2,7.7,7.5,508,116.31156,39.93046
106餐厅(南新园中路店) 分店,/shop/2780689,北京菜,朝阳区南新园中路106号 87318949,鲁菜 家常菜 劲松/潘家园,红烧舟山带鱼 香酥鸭 老妈茄子,87,8.7,8.6,8.5,508,116.47417,39.87432
羯子李(西便门总店) 分店,/shop/509423,火锅,西城区西便门西里7号楼1楼 83114265,羊蝎子 婚宴酒店 广外大街,羊蝎子 白汤蝎子 麻豆腐,74,8.4,7.3,7.5,507,116.35817,39.904312
便宜坊烤鸭店(鲜鱼口店) 分店,/shop/4081966,北京菜,东城区前门大街东侧鲜鱼口老字号餐饮一条街 67132536,烤鸭 前门,烤鸭 芥末鸭掌 盐水鸭肝,117,8.6,8.6,8.6,507,116.40473,39.902393
松子日本料理(华威桥店) 分店,/shop/2853805,日本,朝阳区南新园西路8号 87359890,日本料理 劲松/潘家园,烤鳗鱼 金针菇牛肉卷 寿司,123,8.6,8.6,8.6,506,116.47093,39.87414
嘉和一品粥(双安店) 分店,/shop/561638,小吃快餐,海淀区双榆树西里33号 82612606,粥店 双榆树,皮蛋瘦肉粥 一品粥 锅贴,28,7.5,7.3,7,506,116.33138,39.97413
天下盐(大山子店) 分店,/shop/507643,川菜,朝阳区酒仙桥2号大山子798艺术工厂 59789623,川菜 酒仙桥,黄氏牛肉 炝锅鱼 二毛鸡杂,66,7.4,6.9,6.4,505,0,0
黔鼎贵州牛肉汤,/shop/6016197,贵州菜,海淀区翠微路26号 68158053,贵州菜 公主坟/万寿路,牛肉汤 烧饼 粉蒸牛肉,26,8.3,8,8.2,505,116.30917,39.91521
大鸭梨烤鸭店(红庙店) 分店,/shop/4183553,北京菜,朝阳区金台里甲15号万惠商场3楼 85996969,烤鸭 婚宴酒店 大望路,烤鸭 宫保鸡丁 蓝莓山药,64,8.6,8.5,8.4,505,116.48426,39.923058
愚掌门鱼火锅(西坝河店) 分店,/shop/3181801,火锅,朝阳区西坝河光熙门北里甲26号 64290488,鱼火锅 左家庄,斑鱼片 斑鱼锅 绿豆爽,83,8.5,8,7.9,504,116.44212,39.97309
